% program   : RTKLIB ver.demo5 b34g
% inp file  : usn70010.22o
% inp file  : usn80010.22o
% inp file  : brdm0010.22p
% obs start : 2021/12/31 23:59:42.0 UTC (week2190 518400.0s)
% obs end   : 2022/01/01 23:59:12.0 UTC (week2190 604770.0s)
% pos mode  : Kinematic
% freqs     : L1+L2/E5b
% solution  : Forward
% elev mask : 15.0 deg
% dynamics  : off
% tidecorr  : on
% ionos opt : Broadcast
% tropo opt : Saastamoinen
% ephemeris : Broadcast
% navi sys  : GPS Galileo BDS
% amb res   : Instantaneous
% val thres : 3.0
% antenna1  :                       ( 0.0000  0.0000  0.0000)
% antenna2  :                       ( 0.0000  0.0000  0.0000)
% ref pos   :  1112161.7843 -4842854.6258  3985497.5747
%
% (x/y/z-ecef=WGS84,Q=1:fix,2:float,3:sbas,4:dgps,5:single,6:ppp,ns=# of satellites)
%  UTC                       x-ecef(m)      y-ecef(m)      z-ecef(m)   Q  ns   sdx(m)   sdy(m)   sdz(m)  sdxy(m)  sdyz(m)  sdzx(m) age(s)  ratio
2021/12/31 23:59:42.000   1112161.7842  -4842854.6250   3985497.5756   1  12   0.0038   0.0082   0.0083  -0.0034  -0.0069   0.0032   0.00  252.0
2022/01/01 00:00:12.000   1112161.7835  -4842854.6246   3985497.5732   1  14   0.0037   0.0081   0.0074  -0.0033  -0.0067   0.0027   0.00  102.6
2022/01/01 00:00:42.000   1112161.7838  -4842854.6222   3985497.5724   1  14   0.0037   0.0081   0.0074  -0.0033  -0.0067   0.0027   0.00  130.5
2022/01/01 00:01:12.000   1112161.7839  -4842854.6234   3985497.5736   1  14   0.0037   0.0082   0.0075  -0.0033  -0.0067   0.0027   0.00  204.7
2022/01/01 00:01:42.000   1112161.7839  -4842854.6241   3985497.5739   1  14   0.0037   0.0082   0.0075  -0.0033  -0.0068   0.0027   0.00  498.2
2022/01/01 00:02:12.000   1112161.7830  -4842854.6215   3985497.5720   1  14   0.0037   0.0082   0.0075  -0.0034  -0.0068   0.0028   0.00  133.0
2022/01/01 00:02:42.000   1112161.7839  -4842854.6240   3985497.5725   1  14   0.0037   0.0082   0.0075  -0.0034  -0.0068   0.0028   0.00  350.9
2022/01/01 00:03:12.000   1112161.7840  -4842854.6233   3985497.5723   1  14   0.0037   0.0082   0.0076  -0.0034  -0.0068   0.0028   0.00  186.3
2022/01/01 00:03:42.000   1112161.7843  -4842854.6259   3985497.5750   1  14   0.0037   0.0082   0.0076  -0.0034  -0.0069   0.0028   0.00  238.6
2022/01/01 00:04:12.000   1112161.7845  -4842854.6256   3985497.5744   1  14   0.0037   0.0082   0.0076  -0.0034  -0.0069   0.0028   0.00  171.3
2022/01/01 00:04:42.000   1112161.7845  -4842854.6251   3985497.5747   1  14   0.0037   0.0083   0.0077  -0.0035  -0.0069   0.0029   0.00  400.6
2022/01/01 00:05:12.000   1112161.7837  -4842854.6238   3985497.5732   1  14   0.0037   0.0083   0.0077  -0.0035  -0.0069   0.0029   0.00  246.2
2022/01/01 00:05:42.000   1112161.7839  -4842854.6257   3985497.5737   1  14   0.0038   0.0083   0.0077  -0.0035  -0.0070   0.0029   0.00  278.9
2022/01/01 00:06:12.000   1112161.7842  -4842854.6233   3985497.5730   1  14   0.0038   0.0083   0.0078  -0.0035  -0.0070   0.0029   0.00  114.0
2022/01/01 00:06:42.000   1112161.7843  -4842854.6266   3985497.5751   1  14   0.0038   0.0083   0.0078  -0.0035  -0.0070   0.0029   0.00  294.5
2022/01/01 00:07:12.000   1112161.7847  -4842854.6265   3985497.5756   1  14   0.0038   0.0083   0.0078  -0.0036  -0.0071   0.0029   0.00  285.9
2022/01/01 00:07:42.000   1112161.7843  -4842854.6265   3985497.5764   1  14   0.0038   0.0084   0.0079  -0.0036  -0.0071   0.0030   0.00  444.5
2022/01/01 00:08:12.000   1112161.7850  -4842854.6245   3985497.5746   1  15   0.0035   0.0077   0.0076  -0.0029  -0.0066   0.0025   0.00  308.5
2022/01/01 00:08:42.000   1112161.7843  -4842854.6240   3985497.5734   1  15   0.0035   0.0077   0.0076  -0.0029  -0.0066   0.0025   0.00  303.3
2022/01/01 00:09:12.000   1112161.7837  -4842854.6243   3985497.5743   1  15   0.0035   0.0077   0.0077  -0.0029  -0.0067   0.0025   0.00  205.6
2022/01/01 00:09:42.000   1112161.7842  -4842854.6263   3985497.5757   1  15   0.0035   0.0077   0.0077  -0.0029  -0.0067   0.0025   0.00  134.9
2022/01/01 00:10:12.000   1112161.7841  -4842854.6228   3985497.5718   1  15   0.0035   0.0077   0.0077  -0.0029  -0.0067   0.0025   0.00   77.3
2022/01/01 00:10:42.000   1112161.7838  -4842854.6241   3985497.5728   1  15   0.0035   0.0078   0.0078  -0.0030  -0.0067   0.0025   0.00  165.4
2022/01/01 00:11:12.000   1112161.7836  -4842854.6243   3985497.5733   1  15   0.0035   0.0078   0.0078  -0.0030  -0.0068   0.0025   0.00  202.9
2022/01/01 00:11:42.000   1112161.7842  -4842854.6230   3985497.5719   1  15   0.0035   0.0078   0.0078  -0.0030  -0.0068   0.0025   0.00  241.4
2022/01/01 00:12:12.000   1112161.7836  -4842854.6235   3985497.5727   1  15   0.0036   0.0078   0.0078  -0.0030  -0.0068   0.0026   0.00  109.1
2022/01/01 00:12:42.000   1112161.7844  -4842854.6250   3985497.5735   1  15   0.0036   0.0078   0.0079  -0.0030  -0.0068   0.0026   0.00  111.9
2022/01/01 00:13:12.000   1112161.7844  -4842854.6252   3985497.5735   1  15   0.0036   0.0078   0.0079  -0.0030  -0.0069   0.0026   0.00  260.1
2022/01/01 00:13:42.000   1112161.7838  -4842854.6255   3985497.5745   1  15   0.0036   0.0078   0.0079  -0.0031  -0.0069   0.0026   0.00  117.8
2022/01/01 00:14:12.000   1112161.7844  -4842854.6264   3985497.5757   1  15   0.0036   0.0079   0.0079  -0.0031  -0.0069   0.0026   0.00  199.4
2022/01/01 00:14:42.000   1112161.7839  -4842854.6235   3985497.5721   1  14   0.0036   0.0084   0.0082  -0.0031  -0.0073   0.0027   0.00  265.9
2022/01/01 00:15:12.000   1112161.7833  -4842854.6247   3985497.5742   1  14   0.0036   0.0084   0.0082  -0.0031  -0.0073   0.0027   0.00  128.7
2022/01/01 00:15:42.000   1112161.7839  -4842854.6249   3985497.5746   1  14   0.0036   0.0084   0.0082  -0.0032  -0.0074   0.0027   0.00  175.3
2022/01/01 00:16:12.000   1112161.7832  -4842854.6227   3985497.5722   1  14   0.0036   0.0084   0.0083  -0.0032  -0.0074   0.0027   0.00  191.8
2022/01/01 00:16:42.000   1112161.7836  -4842854.6249   3985497.5730   1  14   0.0036   0.0084   0.0083  -0.0032  -0.0074   0.0027   0.00  247.4
2022/01/01 00:17:12.000   1112161.7835  -4842854.6227   3985497.5705   1  14   0.0036   0.0084   0.0083  -0.0032  -0.0074   0.0027   0.00  187.5
2022/01/01 00:17:42.000   1112161.7841  -4842854.6259   3985497.5736   1  14   0.0036   0.0084   0.0083  -0.0032  -0.0074   0.0028   0.00  376.6
2022/01/01 00:18:12.000   1112161.7840  -4842854.6243   3985497.5737   1  14   0.0036   0.0085   0.0084  -0.0033  -0.0075   0.0028   0.00  180.3
2022/01/01 00:18:42.000   1112161.7847  -4842854.6262   3985497.5753   1  14   0.0036   0.0085   0.0084  -0.0033  -0.0075   0.0028   0.00  302.7
2022/01/01 00:19:12.000   1112161.7849  -4842854.6254   3985497.5745   1  14   0.0036   0.0085   0.0084  -0.0033  -0.0075   0.0028   0.00  378.6
2022/01/01 00:19:42.000   1112161.7843  -4842854.6247   3985497.5742   1  14   0.0037   0.0085   0.0084  -0.0033  -0.0075   0.0028   0.00  219.3
2022/01/01 00:20:12.000   1112161.7840  -4842854.6228   3985497.5726   1  15   0.0034   0.0085   0.0083  -0.0033  -0.0076   0.0033   0.00  206.1
2022/01/01 00:20:42.000   1112161.7838  -4842854.6226   3985497.5726   1  15   0.0034   0.0085   0.0083  -0.0033  -0.0076   0.0033   0.00  230.6
2022/01/01 00:21:12.000   1112161.7841  -4842854.6256   3985497.5744   1  15   0.0034   0.0085   0.0083  -0.0034  -0.0076   0.0033   0.00  320.5
2022/01/01 00:21:42.000   1112161.7840  -4842854.6242   3985497.5737   1  15   0.0034   0.0085   0.0083  -0.0034  -0.0076   0.0033   0.00  231.3
2022/01/01 00:22:12.000   1112161.7845  -4842854.6231   3985497.5726   1  15   0.0034   0.0086   0.0083  -0.0034  -0.0076   0.0033   0.00  143.0
2022/01/01 00:22:42.000   1112161.7835  -4842854.6239   3985497.5731   1  15   0.0034   0.0086   0.0084  -0.0034  -0.0077   0.0033   0.00  283.0
2022/01/01 00:23:12.000   1112161.7839  -4842854.6248   3985497.5744   1  15   0.0034   0.0086   0.0084  -0.0035  -0.0077   0.0034   0.00  316.7
2022/01/01 00:23:42.000   1112161.7836  -4842854.6245   3985497.5746   1  15   0.0034   0.0086   0.0084  -0.0035  -0.0077   0.0034   0.00   97.2
2022/01/01 00:24:12.000   1112161.7839  -4842854.6230   3985497.5724   1  15   0.0035   0.0086   0.0084  -0.0035  -0.0077   0.0034   0.00  180.8
2022/01/01 00:24:42.000   1112161.7843  -4842854.6258   3985497.5743   1  15   0.0035   0.0086   0.0084  -0.0035  -0.0077   0.0034   0.00  305.0
2022/01/01 00:25:12.000   1112161.7848  -4842854.6262   3985497.5754   1  15   0.0035   0.0086   0.0085  -0.0035  -0.0077   0.0034   0.00  330.2
2022/01/01 00:25:42.000   1112161.7832  -4842854.6233   3985497.5725   1  15   0.0035   0.0086   0.0085  -0.0036  -0.0078   0.0034   0.00  227.5
2022/01/01 00:26:12.000   1112161.7847  -4842854.6244   3985497.5727   1  15   0.0035   0.0087   0.0085  -0.0036  -0.0078   0.0035   0.00   65.9
2022/01/01 00:26:42.000   1112161.7847  -4842854.6260   3985497.5744   1  15   0.0035   0.0087   0.0085  -0.0036  -0.0078   0.0035   0.00  190.7
2022/01/01 00:27:12.000   1112161.7845  -4842854.6253   3985497.5730   1  15   0.0035   0.0087   0.0085  -0.0036  -0.0078   0.0035   0.00  348.7
2022/01/01 00:27:42.000   1112161.7838  -4842854.6251   3985497.5738   1  15   0.0035   0.0087   0.0085  -0.0037  -0.0078   0.0035   0.00  242.8
2022/01/01 00:28:12.000   1112161.7842  -4842854.6247   3985497.5735   1  15   0.0035   0.0087   0.0085  -0.0037  -0.0078   0.0035   0.00  133.8
2022/01/01 00:28:42.000   1112161.7841  -4842854.6231   3985497.5728   1  15   0.0036   0.0087   0.0086  -0.0037  -0.0078   0.0035   0.00  173.0
2022/01/01 00:29:12.000   1112161.7840  -4842854.6243   3985497.5731   1  15   0.0036   0.0087   0.0086  -0.0037  -0.0079   0.0035   0.00  356.3
2022/01/01 00:29:42.000   1112161.7842  -4842854.6248   3985497.5740   1  15   0.0036   0.0087   0.0086  -0.0037  -0.0079   0.0036   0.00  104.7
2022/01/01 00:30:12.000   1112161.7835  -4842854.6236   3985497.5724   1  17   0.0034   0.0075   0.0072  -0.0034  -0.0064   0.0031   0.00  189.1
2022/01/01 00:30:42.000   1112161.7838  -4842854.6238   3985497.5726   1  17   0.0035   0.0075   0.0072  -0.0034  -0.0064   0.0031   0.00  107.0
2022/01/01 00:31:12.000   1112161.7840  -4842854.6257   3985497.5751   1  17   0.0035   0.0076   0.0072  -0.0034  -0.0064   0.0032   0.00  124.8
2022/01/01 00:31:42.000   1112161.7836  -4842854.6241   3985497.5732   1  17   0.0035   0.0076   0.0072  -0.0034  -0.0064   0.0032   0.00   86.2
2022/01/01 00:32:12.000   1112161.7842  -4842854.6239   3985497.5731   1  17   0.0035   0.0076   0.0072  -0.0034  -0.0065   0.0032   0.00  667.2
2022/01/01 00:32:42.000   1112161.7844  -4842854.6232   3985497.5734   1  17   0.0035   0.0076   0.0073  -0.0035  -0.0065   0.0032   0.00  536.0
2022/01/01 00:33:12.000   1112161.7846  -4842854.6255   3985497.5742   1  17   0.0035   0.0076   0.0073  -0.0035  -0.0065   0.0032   0.00  239.7
2022/01/01 00:33:42.000   1112161.7842  -4842854.6229   3985497.5726   1  16   0.0035   0.0087   0.0085  -0.0037  -0.0078   0.0034   0.00  331.2
2022/01/01 00:34:12.000   1112161.7844  -4842854.6245   3985497.5740   1  16   0.0035   0.0087   0.0085  -0.0037  -0.0078   0.0035   0.00  177.6
2022/01/01 00:34:42.000   1112161.7839  -4842854.6245   3985497.5730   1  16   0.0036   0.0087   0.0085  -0.0037  -0.0078   0.0035   0.00  312.5
2022/01/01 00:35:12.000   1112161.7839  -4842854.6255   3985497.5740   1  16   0.0036   0.0087   0.0085  -0.0038  -0.0078   0.0035   0.00  201.2
2022/01/01 00:35:42.000   1112161.7839  -4842854.6230   3985497.5721   1  16   0.0036   0.0087   0.0086  -0.0038  -0.0078   0.0035   0.00  276.8
2022/01/01 00:36:12.000   1112161.7848  -4842854.6261   3985497.5757   1  16   0.0036   0.0087   0.0086  -0.0038  -0.0078   0.0035   0.00  186.1
2022/01/01 00:36:42.000   1112161.7842  -4842854.6228   3985497.5721   1  17   0.0034   0.0080   0.0077  -0.0032  -0.0070   0.0028   0.00  275.4
2022/01/01 00:37:12.000   1112161.7843  -4842854.6254   3985497.5735   1  17   0.0034   0.0080   0.0077  -0.0032  -0.0070   0.0028   0.00  126.2
2022/01/01 00:37:42.000   1112161.7843  -4842854.6236   3985497.5723   1  16   0.0037   0.0088   0.0081  -0.0040  -0.0076   0.0034   0.00  142.0
2022/01/01 00:38:12.000   1112161.7845  -4842854.6224   3985497.5710   1  16   0.0037   0.0088   0.0081  -0.0040  -0.0076   0.0034   0.00  194.9
2022/01/01 00:38:42.000   1112161.7837  -4842854.6219   3985497.5708   1  16   0.0037   0.0088   0.0081  -0.0040  -0.0076   0.0034   0.00  696.6
2022/01/01 00:39:12.000   1112161.7842  -4842854.6251   3985497.5733   1  16   0.0037   0.0088   0.0081  -0.0040  -0.0076   0.0034   0.00  240.7
2022/01/01 00:39:42.000   1112161.7840  -4842854.6242   3985497.5731   1  16   0.0037   0.0088   0.0081  -0.0040  -0.0076   0.0034   0.00  180.4
2022/01/01 00:40:12.000   1112161.7848  -4842854.6262   3985497.5751   1  16   0.0037   0.0088   0.0081  -0.0040  -0.0076   0.0034   0.00  152.6
2022/01/01 00:40:42.000   1112161.7841  -4842854.6245   3985497.5739   1  15   0.0038   0.0095   0.0091  -0.0041  -0.0085   0.0035   0.00  286.1
2022/01/01 00:41:12.000   1112161.7836  -4842854.6240   3985497.5744   1  15   0.0038   0.0095   0.0091  -0.0041  -0.0085   0.0035   0.00  165.8
2022/01/01 00:41:42.000   1112161.7843  -4842854.6244   3985497.5740   1  15   0.0038   0.0095   0.0091  -0.0041  -0.0085   0.0035   0.00  173.2
2022/01/01 00:42:12.000   1112161.7838  -4842854.6254   3985497.5740   1  15   0.0038   0.0094   0.0090  -0.0042  -0.0084   0.0035   0.00  287.1
2022/01/01 00:42:42.000   1112161.7840  -4842854.6250   3985497.5729   1  15   0.0038   0.0094   0.0090  -0.0042  -0.0084   0.0036   0.00  181.2
2022/01/01 00:43:12.000   1112161.7844  -4842854.6256   3985497.5744   1  15   0.0038   0.0094   0.0090  -0.0042  -0.0084   0.0036   0.00  239.8
2022/01/01 00:43:42.000   1112161.7835  -4842854.6250   3985497.5746   1  15   0.0038   0.0094   0.0089  -0.0042  -0.0084   0.0036   0.00  344.1
2022/01/01 00:44:12.000   1112161.7844  -4842854.6248   3985497.5735   1  15   0.0038   0.0094   0.0089  -0.0042  -0.0083   0.0036   0.00  405.5
2022/01/01 00:44:42.000   1112161.7842  -4842854.6244   3985497.5739   1  15   0.0038   0.0094   0.0089  -0.0042  -0.0083   0.0036   0.00  301.3
2022/01/01 00:45:12.000   1112161.7839  -4842854.6225   3985497.5725   1  15   0.0038   0.0093   0.0089  -0.0042  -0.0083   0.0036   0.00  433.1
2022/01/01 00:45:42.000   1112161.7843  -4842854.6225   3985497.5725   1  15   0.0039   0.0093   0.0088  -0.0042  -0.0083   0.0036   0.00  219.6
2022/01/01 00:46:12.000   1112161.7836  -4842854.6235   3985497.5729   1  15   0.0039   0.0093   0.0088  -0.0043  -0.0082   0.0036   0.00  119.5
2022/01/01 00:46:42.000   1112161.7838  -4842854.6245   3985497.5735   1  15   0.0039   0.0093   0.0088  -0.0043  -0.0082   0.0036   0.00  290.2
2022/01/01 00:47:12.000   1112161.7841  -4842854.6243   3985497.5731   1  15   0.0039   0.0093   0.0087  -0.0043  -0.0082   0.0036   0.00  665.4
2022/01/01 00:47:42.000   1112161.7844  -4842854.6242   3985497.5722   1  15   0.0039   0.0093   0.0087  -0.0043  -0.0081   0.0036   0.00  454.4
2022/01/01 00:48:12.000   1112161.7844  -4842854.6249   3985497.5727   1  15   0.0039   0.0092   0.0087  -0.0043  -0.0081   0.0036   0.00  390.3
2022/01/01 00:48:42.000   1112161.7837  -4842854.6235   3985497.5725   1  15   0.0039   0.0092   0.0086  -0.0043  -0.0081   0.0036   0.00  247.9
2022/01/01 00:49:12.000   1112161.7845  -4842854.6253   3985497.5735   1  15   0.0039   0.0092   0.0086  -0.0043  -0.0081   0.0036   0.00  161.1
2022/01/01 00:49:42.000   1112161.7835  -4842854.6240   3985497.5728   1  15   0.0040   0.0092   0.0086  -0.0043  -0.0080   0.0036   0.00  283.3
2022/01/01 00:50:12.000   1112161.7841  -4842854.6235   3985497.5717   1  15   0.0040   0.0092   0.0085  -0.0044  -0.0080   0.0036   0.00  295.5
2022/01/01 00:50:42.000   1112161.7847  -4842854.6257   3985497.5747   1  15   0.0040   0.0091   0.0085  -0.0044  -0.0080   0.0036   0.00  420.1
2022/01/01 00:51:12.000   1112161.7843  -4842854.6234   3985497.5724   1  16   0.0038   0.0082   0.0070  -0.0038  -0.0066   0.0027   0.00  287.0
2022/01/01 00:51:42.000   1112161.7837  -4842854.6233   3985497.5726   1  16   0.0038   0.0082   0.0070  -0.0038  -0.0066   0.0027   0.00  250.6
2022/01/01 00:52:12.000   1112161.7838  -4842854.6235   3985497.5728   1  16   0.0038   0.0082   0.0069  -0.0038  -0.0066   0.0026   0.00  167.3
2022/01/01 00:52:42.000   1112161.7839  -4842854.6236   3985497.5728   1  16   0.0038   0.0082   0.0069  -0.0038  -0.0065   0.0026   0.00  346.1
2022/01/01 00:53:12.000   1112161.7848  -4842854.6230   3985497.5716   1  16   0.0038   0.0081   0.0069  -0.0038  -0.0065   0.0026   0.00  343.5
2022/01/01 00:53:42.000   1112161.7847  -4842854.6234   3985497.5721   1  16   0.0038   0.0081   0.0068  -0.0038  -0.0065   0.0026   0.00  218.5
2022/01/01 00:54:12.000   1112161.7848  -4842854.6261   3985497.5740   1  16   0.0039   0.0081   0.0068  -0.0038  -0.0064   0.0026   0.00  336.8
2022/01/01 00:54:42.000   1112161.7846  -4842854.6263   3985497.5746   1  16   0.0039   0.0081   0.0068  -0.0038  -0.0064   0.0026   0.00  143.8
2022/01/01 00:55:12.000   1112161.7839  -4842854.6253   3985497.5735   1  16   0.0039   0.0081   0.0067  -0.0039  -0.0064   0.0026   0.00  246.3
2022/01/01 00:55:42.000   1112161.7843  -4842854.6246   3985497.5735   1  16   0.0039   0.0081   0.0067  -0.0039  -0.0064   0.0026   0.00  137.2
2022/01/01 00:56:12.000   1112161.7845  -4842854.6245   3985497.5732   1  16   0.0039   0.0081   0.0067  -0.0039  -0.0063   0.0026   0.00  214.4
2022/01/01 00:56:42.000   1112161.7849  -4842854.6258   3985497.5740   1  16   0.0039   0.0080   0.0066  -0.0039  -0.0063   0.0026   0.00  261.1
2022/01/01 00:57:12.000   1112161.7842  -4842854.6263   3985497.5748   1  16   0.0039   0.0080   0.0066  -0.0039  -0.0063   0.0026   0.00  311.2
2022/01/01 00:57:42.000   1112161.7846  -4842854.6254   3985497.5735   1  16   0.0039   0.0080   0.0066  -0.0039  -0.0062   0.0026   0.00  203.1
2022/01/01 00:58:12.000   1112161.7846  -4842854.6241   3985497.5726   1  16   0.0039   0.0080   0.0065  -0.0039  -0.0062   0.0026   0.00  131.4
2022/01/01 00:58:42.000   1112161.7850  -4842854.6253   3985497.5723   1  16   0.0040   0.0080   0.0065  -0.0039  -0.0062   0.0026   0.00  263.6
2022/01/01 00:59:12.000   1112161.7842  -4842854.6246   3985497.5745   1  15   0.0040   0.0090   0.0069  -0.0040  -0.0069   0.0027   0.00  280.0
2022/01/01 00:59:42.000   1112161.7836  -4842854.6238   3985497.5721   1  15   0.0040   0.0089   0.0069  -0.0040  -0.0069   0.0026   0.00  160.2
2022/01/01 01:00:12.000   1112161.7843  -4842854.6249   3985497.5728   1  15   0.0040   0.0089   0.0068  -0.0040  -0.0068   0.0026   0.00  405.1
2022/01/01 01:00:42.000   1112161.7844  -4842854.6246   3985497.5740   1  15   0.0040   0.0089   0.0068  -0.0040  -0.0068   0.0026   0.00  199.6
2022/01/01 01:01:12.000   1112161.7851  -4842854.6268   3985497.5746   1  15   0.0040   0.0088   0.0068  -0.0041  -0.0068   0.0026   0.00  136.9
2022/01/01 01:01:42.000   1112161.7851  -4842854.6274   3985497.5755   1  15   0.0040   0.0088   0.0067  -0.0041  -0.0067   0.0026   0.00  435.5
2022/01/01 01:02:12.000   1112161.7847  -4842854.6260   3985497.5739   1  15   0.0040   0.0088   0.0067  -0.0041  -0.0067   0.0026   0.00  332.6
2022/01/01 01:02:42.000   1112161.7841  -4842854.6251   3985497.5733   1  15   0.0040   0.0087   0.0067  -0.0041  -0.0066   0.0026   0.00  273.2
2022/01/01 01:03:12.000   1112161.7846  -4842854.6257   3985497.5748   1  15   0.0041   0.0087   0.0066  -0.0041  -0.0066   0.0026   0.00  273.3
2022/01/01 01:03:42.000   1112161.7842  -4842854.6262   3985497.5743   1  15   0.0041   0.0087   0.0066  -0.0041  -0.0066   0.0026   0.00  435.4
2022/01/01 01:04:12.000   1112161.7839  -4842854.6246   3985497.5732   1  15   0.0041   0.0086   0.0065  -0.0041  -0.0065   0.0026   0.00  378.5
2022/01/01 01:04:42.000   1112161.7843  -4842854.6254   3985497.5747   1  15   0.0041   0.0086   0.0065  -0.0041  -0.0065   0.0026   0.00  277.4
2022/01/01 01:05:12.000   1112161.7834  -4842854.6239   3985497.5733   1  15   0.0041   0.0086   0.0065  -0.0041  -0.0064   0.0026   0.00  222.6
2022/01/01 01:05:42.000   1112161.7845  -4842854.6263   3985497.5743   1  15   0.0041   0.0086   0.0064  -0.0042  -0.0064   0.0026   0.00  260.4
2022/01/01 01:06:12.000   1112161.7840  -4842854.6232   3985497.5720   1  15   0.0041   0.0085   0.0064  -0.0042  -0.0064   0.0026   0.00  342.8
2022/01/01 01:06:42.000   1112161.7845  -4842854.6261   3985497.5750   1  15   0.0041   0.0085   0.0064  -0.0042  -0.0063   0.0026   0.00  372.1
2022/01/01 01:07:12.000   1112161.7851  -4842854.6239   3985497.5730   1  15   0.0042   0.0085   0.0063  -0.0042  -0.0063   0.0026   0.00  391.2
2022/01/01 01:07:42.000   1112161.7839  -4842854.6247   3985497.5731   1  16   0.0040   0.0079   0.0061  -0.0037  -0.0058   0.0022   0.00  203.2
2022/01/01 01:08:12.000   1112161.7840  -4842854.6249   3985497.5742   1  16   0.0040   0.0078   0.0061  -0.0037  -0.0058   0.0021   0.00  333.1
2022/01/01 01:08:42.000   1112161.7841  -4842854.6251   3985497.5743   1  16   0.0040   0.0078   0.0060  -0.0037  -0.0058   0.0021   0.00   80.3
2022/01/01 01:09:12.000   1112161.7845  -4842854.6265   3985497.5747   1  16   0.0040   0.0078   0.0060  -0.0037  -0.0057   0.0021   0.00  218.7
2022/01/01 01:09:42.000   1112161.7848  -4842854.6256   3985497.5739   1  16   0.0040   0.0077   0.0060  -0.0037  -0.0057   0.0021   0.00  112.4
2022/01/01 01:10:12.000   1112161.7842  -4842854.6252   3985497.5727   1  16   0.0040   0.0077   0.0060  -0.0037  -0.0057   0.0021   0.00  463.6
2022/01/01 01:10:42.000   1112161.7844  -4842854.6246   3985497.5741   1  16   0.0040   0.0077   0.0059  -0.0037  -0.0056   0.0021   0.00  480.5
2022/01/01 01:11:12.000   1112161.7851  -4842854.6261   3985497.5745   1  16   0.0040   0.0077   0.0059  -0.0037  -0.0056   0.0021   0.00  178.8
2022/01/01 01:11:42.000   1112161.7840  -4842854.6234   3985497.5737   1  16   0.0040   0.0076   0.0059  -0.0037  -0.0056   0.0021   0.00  146.2
2022/01/01 01:12:12.000   1112161.7838  -4842854.6253   3985497.5744   1  16   0.0040   0.0076   0.0059  -0.0037  -0.0055   0.0021   0.00  223.9
2022/01/01 01:12:42.000   1112161.7839  -4842854.6255   3985497.5751   1  16   0.0041   0.0076   0.0058  -0.0037  -0.0055   0.0021   0.00  255.6
2022/01/01 01:13:12.000   1112161.7839  -4842854.6255   3985497.5747   1  16   0.0041   0.0076   0.0058  -0.0038  -0.0055   0.0021   0.00  536.1
2022/01/01 01:13:42.000   1112161.7841  -4842854.6257   3985497.5742   1  16   0.0041   0.0075   0.0058  -0.0038  -0.0054   0.0021   0.00  348.7
2022/01/01 01:14:12.000   1112161.7837  -4842854.6240   3985497.5743   1  16   0.0041   0.0075   0.0058  -0.0038  -0.0054   0.0020   0.00  365.5
2022/01/01 01:14:42.000   1112161.7841  -4842854.6246   3985497.5740   1  16   0.0041   0.0075   0.0057  -0.0038  -0.0054   0.0020   0.00  335.6
2022/01/01 01:15:12.000   1112161.7842  -4842854.6248   3985497.5737   1  16   0.0041   0.0075   0.0057  -0.0038  -0.0054   0.0020   0.00  216.7
2022/01/01 01:15:42.000   1112161.7847  -4842854.6262   3985497.5745   1  16   0.0041   0.0074   0.0057  -0.0038  -0.0053   0.0020   0.00  357.5
2022/01/01 01:16:12.000   1112161.7839  -4842854.6249   3985497.5736   1  16   0.0041   0.0074   0.0057  -0.0038  -0.0053   0.0020   0.00  136.6
2022/01/01 01:16:42.000   1112161.7840  -4842854.6243   3985497.5732   1  16   0.0041   0.0074   0.0056  -0.0038  -0.0053   0.0020   0.00  222.0
2022/01/01 01:17:12.000   1112161.7840  -4842854.6236   3985497.5723   1  17   0.0037   0.0066   0.0055  -0.0029  -0.0049   0.0013   0.00  157.0
2022/01/01 01:17:42.000   1112161.7843  -4842854.6250   3985497.5735   1  17   0.0037   0.0066   0.0055  -0.0029  -0.0048   0.0013   0.00  224.3
2022/01/01 01:18:12.000   1112161.7844  -4842854.6252   3985497.5742   1  17   0.0037   0.0066   0.0055  -0.0029  -0.0048   0.0013   0.00  110.8
2022/01/01 01:18:42.000   1112161.7839  -4842854.6252   3985497.5743   1  17   0.0037   0.0066   0.0054  -0.0029  -0.0048   0.0013   0.00  182.8
2022/01/01 01:19:12.000   1112161.7844  -4842854.6257   3985497.5743   1  17   0.0037   0.0065   0.0054  -0.0029  -0.0048   0.0013   0.00  274.0
2022/01/01 01:19:42.000   1112161.7838  -4842854.6246   3985497.5731   1  17   0.0037   0.0065   0.0054  -0.0029  -0.0047   0.0013   0.00   98.6
2022/01/01 01:20:12.000   1112161.7849  -4842854.6260   3985497.5737   1  17   0.0037   0.0065   0.0054  -0.0029  -0.0047   0.0013   0.00  292.5
2022/01/01 01:20:42.000   1112161.7839  -4842854.6247   3985497.5736   1  17   0.0037   0.0065   0.0054  -0.0029  -0.0047   0.0013   0.00   87.5
2022/01/01 01:21:12.000   1112161.7844  -4842854.6256   3985497.5746   1  17   0.0037   0.0065   0.0054  -0.0029  -0.0047   0.0013   0.00  194.7
2022/01/01 01:21:42.000   1112161.7836  -4842854.6245   3985497.5737   1  17   0.0037   0.0064   0.0053  -0.0029  -0.0046   0.0013   0.00  191.5
2022/01/01 01:22:12.000   1112161.7841  -4842854.6250   3985497.5744   1  18   0.0036   0.0063   0.0050  -0.0030  -0.0043   0.0017   0.00  416.5
2022/01/01 01:22:42.000   1112161.7835  -4842854.6238   3985497.5724   1  18   0.0036   0.0062   0.0050  -0.0030  -0.0043   0.0017   0.00  295.6
2022/01/01 01:23:12.000   1112161.7836  -4842854.6233   3985497.5736   1  18   0.0036   0.0062   0.0050  -0.0030  -0.0043   0.0017   0.00  208.6
2022/01/01 01:23:42.000   1112161.7839  -4842854.6243   3985497.5739   1  18   0.0036   0.0062   0.0050  -0.0030  -0.0043   0.0017   0.00  133.4
2022/01/01 01:24:12.000   1112161.7839  -4842854.6257   3985497.5742   1  18   0.0036   0.0062   0.0049  -0.0030  -0.0043   0.0017   0.00  255.7
2022/01/01 01:24:42.000   1112161.7837  -4842854.6246   3985497.5741   1  18   0.0036   0.0062   0.0049  -0.0030  -0.0042   0.0017   0.00  158.0
2022/01/01 01:25:12.000   1112161.7838  -4842854.6246   3985497.5735   1  18   0.0036   0.0062   0.0049  -0.0030  -0.0042   0.0017   0.00  240.6
2022/01/01 01:25:42.000   1112161.7843  -4842854.6247   3985497.5739   1  18   0.0036   0.0061   0.0049  -0.0030  -0.0042   0.0017   0.00  615.8
2022/01/01 01:26:12.000   1112161.7837  -4842854.6245   3985497.5741   1  18   0.0036   0.0061   0.0049  -0.0030  -0.0042   0.0017   0.00  216.4
2022/01/01 01:26:42.000   1112161.7846  -4842854.6239   3985497.5732   1  18   0.0036   0.0061   0.0049  -0.0030  -0.0042   0.0017   0.00  165.8
2022/01/01 01:27:12.000   1112161.7852  -4842854.6253   3985497.5739   1  18   0.0036   0.0061   0.0049  -0.0030  -0.0042   0.0017   0.00  440.1
2022/01/01 01:27:42.000   1112161.7848  -4842854.6251   3985497.5741   1  18   0.0036   0.0061   0.0049  -0.0030  -0.0041   0.0017   0.00  179.5
2022/01/01 01:28:12.000   1112161.7842  -4842854.6251   3985497.5734   1  18   0.0036   0.0061   0.0049  -0.0030  -0.0041   0.0017   0.00  570.2
2022/01/01 01:28:42.000   1112161.7843  -4842854.6245   3985497.5731   1  18   0.0036   0.0060   0.0048  -0.0030  -0.0041   0.0017   0.00  276.5
2022/01/01 01:29:12.000   1112161.7836  -4842854.6243   3985497.5738   1  18   0.0036   0.0060   0.0048  -0.0030  -0.0041   0.0017   0.00  276.9
2022/01/01 01:29:42.000   1112161.7847  -4842854.6251   3985497.5751   1  18   0.0036   0.0060   0.0048  -0.0030  -0.0041   0.0017   0.00  373.7
2022/01/01 01:30:12.000   1112161.7839  -4842854.6244   3985497.5742   1  18   0.0036   0.0060   0.0048  -0.0030  -0.0041   0.0017   0.00  294.4
2022/01/01 01:30:42.000   1112161.7846  -4842854.6245   3985497.5739   1  18   0.0036   0.0060   0.0048  -0.0030  -0.0040   0.0017   0.00  383.8
2022/01/01 01:31:12.000   1112161.7841  -4842854.6254   3985497.5746   1  18   0.0036   0.0060   0.0048  -0.0030  -0.0040   0.0017   0.00  577.9
2022/01/01 01:31:42.000   1112161.7840  -4842854.6250   3985497.5744   1  18   0.0036   0.0060   0.0048  -0.0030  -0.0040   0.0017   0.00  226.9
2022/01/01 01:32:12.000   1112161.7841  -4842854.6245   3985497.5738   1  18   0.0036   0.0059   0.0048  -0.0030  -0.0040   0.0017   0.00  237.5
2022/01/01 01:32:42.000   1112161.7849  -4842854.6261   3985497.5738   1  18   0.0036   0.0059   0.0048  -0.0030  -0.0040   0.0017   0.00  222.3
2022/01/01 01:33:12.000   1112161.7836  -4842854.6230   3985497.5730   1  18   0.0036   0.0059   0.0048  -0.0030  -0.0040   0.0017   0.00  106.4
2022/01/01 01:33:42.000   1112161.7843  -4842854.6250   3985497.5742   1  18   0.0036   0.0059   0.0048  -0.0030  -0.0040   0.0017   0.00  216.3
2022/01/01 01:34:12.000   1112161.7838  -4842854.6231   3985497.5728   1  18   0.0036   0.0059   0.0048  -0.0030  -0.0040   0.0017   0.00   89.3
2022/01/01 01:34:42.000   1112161.7836  -4842854.6255   3985497.5739   1  18   0.0036   0.0059   0.0048  -0.0030  -0.0040   0.0017   0.00  151.2
2022/01/01 01:35:12.000   1112161.7840  -4842854.6253   3985497.5748   1  18   0.0036   0.0059   0.0047  -0.0030  -0.0039   0.0017   0.00  285.8
2022/01/01 01:35:42.000   1112161.7843  -4842854.6253   3985497.5739   1  18   0.0036   0.0059   0.0047  -0.0030  -0.0039   0.0017   0.00  250.1
2022/01/01 01:36:12.000   1112161.7842  -4842854.6244   3985497.5737   1  18   0.0036   0.0058   0.0047  -0.0030  -0.0039   0.0017   0.00  459.3
2022/01/01 01:36:42.000   1112161.7847  -4842854.6265   3985497.5747   1  18   0.0036   0.0058   0.0047  -0.0030  -0.0039   0.0017   0.00  758.1
2022/01/01 01:37:12.000   1112161.7843  -4842854.6255   3985497.5744   1  18   0.0036   0.0058   0.0047  -0.0030  -0.0039   0.0017   0.00  327.4
2022/01/01 01:37:42.000   1112161.7844  -4842854.6270   3985497.5745   1  18   0.0036   0.0058   0.0047  -0.0030  -0.0039   0.0017   0.00  477.0
2022/01/01 01:38:12.000   1112161.7841  -4842854.6261   3985497.5740   1  18   0.0036   0.0058   0.0047  -0.0030  -0.0039   0.0017   0.00  498.4
2022/01/01 01:38:42.000   1112161.7848  -4842854.6259   3985497.5736   1  18   0.0036   0.0058   0.0047  -0.0029  -0.0039   0.0017   0.00  352.9
2022/01/01 01:39:12.000   1112161.7838  -4842854.6253   3985497.5749   1  18   0.0036   0.0058   0.0047  -0.0029  -0.0039   0.0017   0.00  397.9
2022/01/01 01:39:42.000   1112161.7843  -4842854.6253   3985497.5748   1  18   0.0036   0.0058   0.0047  -0.0029  -0.0039   0.0017   0.00  210.8
2022/01/01 01:40:12.000   1112161.7839  -4842854.6235   3985497.5732   1  18   0.0036   0.0058   0.0047  -0.0029  -0.0038   0.0017   0.00  157.3
2022/01/01 01:40:42.000   1112161.7839  -4842854.6250   3985497.5738   1  19   0.0036   0.0057   0.0045  -0.0029  -0.0037   0.0016   0.00  289.1
2022/01/01 01:41:12.000   1112161.7840  -4842854.6238   3985497.5733   1  19   0.0036   0.0057   0.0045  -0.0029  -0.0037   0.0016   0.00  282.1
2022/01/01 01:41:42.000   1112161.7843  -4842854.6262   3985497.5754   1  19   0.0036   0.0057   0.0045  -0.0029  -0.0037   0.0016   0.00  404.7
2022/01/01 01:42:12.000   1112161.7844  -4842854.6240   3985497.5742   1  19   0.0036   0.0057   0.0045  -0.0029  -0.0037   0.0016   0.00  144.8
2022/01/01 01:42:42.000   1112161.7839  -4842854.6248   3985497.5734   1  19   0.0036   0.0057   0.0045  -0.0029  -0.0037   0.0016   0.00  249.6
2022/01/01 01:43:12.000   1112161.7844  -4842854.6241   3985497.5733   1  19   0.0036   0.0057   0.0045  -0.0029  -0.0037   0.0016   0.00  245.4
2022/01/01 01:43:42.000   1112161.7841  -4842854.6250   3985497.5750   1  19   0.0036   0.0057   0.0044  -0.0029  -0.0037   0.0016   0.00  171.4
2022/01/01 01:44:12.000   1112161.7835  -4842854.6253   3985497.5744   1  19   0.0036   0.0056   0.0044  -0.0029  -0.0037   0.0016   0.00  315.6
2022/01/01 01:44:42.000   1112161.7839  -4842854.6254   3985497.5745   1  19   0.0036   0.0056   0.0044  -0.0029  -0.0037   0.0016   0.00  132.2
2022/01/01 01:45:12.000   1112161.7850  -4842854.6261   3985497.5744   1  19   0.0036   0.0056   0.0044  -0.0029  -0.0037   0.0016   0.00  122.1
2022/01/01 01:45:42.000   1112161.7843  -4842854.6250   3985497.5750   1  19   0.0036   0.0056   0.0044  -0.0029  -0.0036   0.0016   0.00  101.9
2022/01/01 01:46:12.000   1112161.7841  -4842854.6266   3985497.5741   1  19   0.0036   0.0056   0.0044  -0.0029  -0.0036   0.0016   0.00  126.9
2022/01/01 01:46:42.000   1112161.7832  -4842854.6243   3985497.5742   1  18   0.0036   0.0056   0.0047  -0.0028  -0.0037   0.0015   0.00  274.5
2022/01/01 01:47:12.000   1112161.7849  -4842854.6253   3985497.5742   1  18   0.0036   0.0056   0.0047  -0.0028  -0.0037   0.0015   0.00  276.5
2022/01/01 01:47:42.000   1112161.7850  -4842854.6254   3985497.5746   1  18   0.0036   0.0056   0.0047  -0.0028  -0.0037   0.0016   0.00  371.2
2022/01/01 01:48:12.000   1112161.7838  -4842854.6266   3985497.5757   1  18   0.0036   0.0056   0.0047  -0.0028  -0.0037   0.0016   0.00  158.3
2022/01/01 01:48:42.000   1112161.7838  -4842854.6243   3985497.5747   1  18   0.0036   0.0056   0.0047  -0.0028  -0.0037   0.0016   0.00  130.8
2022/01/01 01:49:12.000   1112161.7847  -4842854.6259   3985497.5744   1  18   0.0036   0.0056   0.0047  -0.0028  -0.0037   0.0016   0.00  291.8
2022/01/01 01:49:42.000   1112161.7837  -4842854.6257   3985497.5735   1  18   0.0036   0.0056   0.0047  -0.0028  -0.0037   0.0016   0.00  389.8
2022/01/01 01:50:12.000   1112161.7847  -4842854.6265   3985497.5756   1  18   0.0036   0.0056   0.0047  -0.0028  -0.0037   0.0016   0.00  196.0
2022/01/01 01:50:42.000   1112161.7841  -4842854.6253   3985497.5740   1  18   0.0036   0.0056   0.0047  -0.0028  -0.0037   0.0016   0.00  418.8
2022/01/01 01:51:12.000   1112161.7841  -4842854.6259   3985497.5748   1  18   0.0036   0.0056   0.0046  -0.0028  -0.0037   0.0016   0.00  350.1
2022/01/01 01:51:42.000   1112161.7847  -4842854.6257   3985497.5741   1  18   0.0036   0.0056   0.0046  -0.0028  -0.0037   0.0016   0.00  228.4
2022/01/01 01:52:12.000   1112161.7847  -4842854.6251   3985497.5743   1  18   0.0036   0.0056   0.0046  -0.0028  -0.0037   0.0016   0.00  342.9
2022/01/01 01:52:42.000   1112161.7842  -4842854.6249   3985497.5733   1  18   0.0036   0.0056   0.0046  -0.0028  -0.0037   0.0016   0.00  479.4
2022/01/01 01:53:12.000   1112161.7843  -4842854.6249   3985497.5741   1  18   0.0035   0.0056   0.0046  -0.0028  -0.0037   0.0016   0.00  388.2
2022/01/01 01:53:42.000   1112161.7844  -4842854.6256   3985497.5741   1  18   0.0035   0.0056   0.0046  -0.0028  -0.0037   0.0016   0.00  337.9
2022/01/01 01:54:12.000   1112161.7835  -4842854.6245   3985497.5733   1  18   0.0035   0.0056   0.0046  -0.0028  -0.0037   0.0016   0.00  435.0
2022/01/01 01:54:42.000   1112161.7851  -4842854.6261   3985497.5748   1  18   0.0035   0.0056   0.0046  -0.0028  -0.0037   0.0016   0.00  154.7
2022/01/01 01:55:12.000   1112161.7833  -4842854.6259   3985497.5750   1  18   0.0035   0.0056   0.0046  -0.0028  -0.0037   0.0017   0.00  193.5
2022/01/01 01:55:42.000   1112161.7849  -4842854.6258   3985497.5747   1  18   0.0035   0.0056   0.0046  -0.0028  -0.0037   0.0017   0.00  366.4
2022/01/01 01:56:12.000   1112161.7845  -4842854.6264   3985497.5751   1  18   0.0035   0.0055   0.0046  -0.0028  -0.0037   0.0017   0.00  616.0
2022/01/01 01:56:42.000   1112161.7841  -4842854.6259   3985497.5747   1  18   0.0035   0.0055   0.0046  -0.0028  -0.0037   0.0017   0.00  125.6
2022/01/01 01:57:12.000   1112161.7839  -4842854.6260   3985497.5748   1  18   0.0035   0.0055   0.0046  -0.0028  -0.0037   0.0017   0.00  290.5
2022/01/01 01:57:42.000   1112161.7833  -4842854.6256   3985497.5742   1  18   0.0035   0.0055   0.0046  -0.0028  -0.0037   0.0017   0.00  400.1
2022/01/01 01:58:12.000   1112161.7855  -4842854.6255   3985497.5737   1  18   0.0035   0.0055   0.0046  -0.0028  -0.0037   0.0017   0.00  276.1
2022/01/01 01:58:42.000   1112161.7842  -4842854.6252   3985497.5745   1  18   0.0035   0.0055   0.0046  -0.0028  -0.0037   0.0017   0.00  119.7
2022/01/01 01:59:12.000   1112161.7835  -4842854.6256   3985497.5745   1  18   0.0035   0.0055   0.0046  -0.0028  -0.0037   0.0017   0.00  469.1
2022/01/01 01:59:42.000   1112161.7842  -4842854.6249   3985497.5738   1  18   0.0035   0.0055   0.0046  -0.0028  -0.0037   0.0017   0.00  204.7
2022/01/01 02:00:12.000   1112161.7837  -4842854.6249   3985497.5748   1  18   0.0035   0.0055   0.0046  -0.0028  -0.0037   0.0017   0.00  226.0
2022/01/01 02:00:42.000   1112161.7835  -4842854.6254   3985497.5743   1  18   0.0035   0.0055   0.0046  -0.0028  -0.0037   0.0017   0.00   90.4
2022/01/01 02:01:12.000   1112161.7841  -4842854.6246   3985497.5732   1  18   0.0035   0.0055   0.0046  -0.0028  -0.0037   0.0017   0.00  219.0
2022/01/01 02:01:42.000   1112161.7832  -4842854.6251   3985497.5736   1  18   0.0035   0.0055   0.0046  -0.0028  -0.0037   0.0017   0.00  367.2
2022/01/01 02:02:12.000   1112161.7833  -4842854.6252   3985497.5742   1  18   0.0035   0.0055   0.0046  -0.0028  -0.0037   0.0018   0.00  232.9
2022/01/01 02:02:42.000   1112161.7836  -4842854.6248   3985497.5747   1  19   0.0035   0.0055   0.0045  -0.0027  -0.0036   0.0016   0.00   95.6
2022/01/01 02:03:12.000   1112161.7839  -4842854.6249   3985497.5749   1  19   0.0035   0.0055   0.0045  -0.0027  -0.0036   0.0016   0.00  270.2
2022/01/01 02:03:42.000   1112161.7832  -4842854.6242   3985497.5740   1  19   0.0035   0.0055   0.0045  -0.0027  -0.0036   0.0016   0.00  188.8
2022/01/01 02:04:12.000   1112161.7835  -4842854.6248   3985497.5741   1  19   0.0035   0.0055   0.0045  -0.0027  -0.0036   0.0016   0.00  152.0
2022/01/01 02:04:42.000   1112161.7835  -4842854.6249   3985497.5742   1  19   0.0035   0.0055   0.0045  -0.0027  -0.0036   0.0016   0.00  302.7
2022/01/01 02:05:12.000   1112161.7844  -4842854.6260   3985497.5747   1  19   0.0035   0.0055   0.0045  -0.0027  -0.0036   0.0016   0.00  298.0
2022/01/01 02:05:42.000   1112161.7837  -4842854.6247   3985497.5743   1  19   0.0035   0.0055   0.0045  -0.0027  -0.0036   0.0016   0.00  275.4
2022/01/01 02:06:12.000   1112161.7836  -4842854.6246   3985497.5747   1  19   0.0035   0.0055   0.0045  -0.0027  -0.0036   0.0016   0.00  446.1
2022/01/01 02:06:42.000   1112161.7842  -4842854.6255   3985497.5742   1  19   0.0035   0.0055   0.0045  -0.0027  -0.0036   0.0016   0.00  121.5
2022/01/01 02:07:12.000   1112161.7840  -4842854.6247   3985497.5743   1  19   0.0035   0.0055   0.0045  -0.0027  -0.0036   0.0016   0.00  266.7
2022/01/01 02:07:42.000   1112161.7840  -4842854.6243   3985497.5738   1  19   0.0035   0.0055   0.0045  -0.0027  -0.0036   0.0016   0.00  167.2
2022/01/01 02:08:12.000   1112161.7841  -4842854.6253   3985497.5743   1  19   0.0035   0.0055   0.0045  -0.0027  -0.0036   0.0016   0.00  231.2
2022/01/01 02:08:42.000   1112161.7836  -4842854.6247   3985497.5739   1  19   0.0035   0.0055   0.0045  -0.0027  -0.0036   0.0017   0.00  444.2
2022/01/01 02:09:12.000   1112161.7844  -4842854.6252   3985497.5738   1  19   0.0035   0.0055   0.0045  -0.0027  -0.0037   0.0017   0.00  275.8
2022/01/01 02:09:42.000   1112161.7846  -4842854.6252   3985497.5738   1  19   0.0035   0.0055   0.0045  -0.0027  -0.0037   0.0017   0.00  229.6
2022/01/01 02:10:12.000   1112161.7836  -4842854.6252   3985497.5748   1  19   0.0035   0.0055   0.0045  -0.0027  -0.0037   0.0017   0.00  267.2
2022/01/01 02:10:42.000   1112161.7846  -4842854.6257   3985497.5750   1  19   0.0035   0.0055   0.0045  -0.0027  -0.0037   0.0017   0.00  170.8
2022/01/01 02:11:12.000   1112161.7844  -4842854.6263   3985497.5759   1  19   0.0035   0.0055   0.0045  -0.0027  -0.0037   0.0017   0.00  218.1
2022/01/01 02:11:42.000   1112161.7837  -4842854.6261   3985497.5751   1  19   0.0035   0.0055   0.0046  -0.0027  -0.0037   0.0017   0.00  124.2
2022/01/01 02:12:12.000   1112161.7839  -4842854.6252   3985497.5747   1  19   0.0035   0.0055   0.0046  -0.0027  -0.0037   0.0017   0.00  262.9
2022/01/01 02:12:42.000   1112161.7842  -4842854.6261   3985497.5743   1  18   0.0035   0.0058   0.0046  -0.0027  -0.0039   0.0017   0.00  253.2
2022/01/01 02:13:12.000   1112161.7839  -4842854.6237   3985497.5735   1  18   0.0035   0.0058   0.0046  -0.0027  -0.0039   0.0017   0.00  133.7
2022/01/01 02:13:42.000   1112161.7839  -4842854.6238   3985497.5736   1  18   0.0035   0.0058   0.0046  -0.0027  -0.0039   0.0017   0.00  294.0
2022/01/01 02:14:12.000   1112161.7835  -4842854.6248   3985497.5742   1  18   0.0035   0.0058   0.0046  -0.0027  -0.0039   0.0017   0.00  147.4
2022/01/01 02:14:42.000   1112161.7837  -4842854.6231   3985497.5734   1  18   0.0035   0.0058   0.0046  -0.0027  -0.0039   0.0017   0.00  161.0
2022/01/01 02:15:12.000   1112161.7842  -4842854.6241   3985497.5734   1  18   0.0035   0.0058   0.0046  -0.0027  -0.0039   0.0018   0.00  160.7
2022/01/01 02:15:42.000   1112161.7839  -4842854.6259   3985497.5746   1  18   0.0035   0.0058   0.0046  -0.0027  -0.0039   0.0018   0.00  174.3
2022/01/01 02:16:12.000   1112161.7840  -4842854.6242   3985497.5722   1  18   0.0035   0.0058   0.0046  -0.0027  -0.0039   0.0018   0.00  266.9
2022/01/01 02:16:42.000   1112161.7838  -4842854.6249   3985497.5742   1  18   0.0035   0.0058   0.0047  -0.0028  -0.0039   0.0018   0.00  427.3
2022/01/01 02:17:12.000   1112161.7841  -4842854.6254   3985497.5744   1  18   0.0035   0.0058   0.0047  -0.0028  -0.0039   0.0018   0.00  170.5
2022/01/01 02:17:42.000   1112161.7835  -4842854.6256   3985497.5742   1  18   0.0035   0.0058   0.0047  -0.0028  -0.0039   0.0018   0.00  451.2
2022/01/01 02:18:12.000   1112161.7842  -4842854.6246   3985497.5744   1  18   0.0035   0.0058   0.0047  -0.0028  -0.0039   0.0018   0.00  205.4
2022/01/01 02:18:42.000   1112161.7843  -4842854.6255   3985497.5745   1  18   0.0035   0.0058   0.0047  -0.0028  -0.0039   0.0018   0.00  448.9
2022/01/01 02:19:12.000   1112161.7840  -4842854.6250   3985497.5748   1  18   0.0035   0.0058   0.0047  -0.0028  -0.0039   0.0018   0.00  284.3
2022/01/01 02:19:42.000   1112161.7853  -4842854.6241   3985497.5732   1  18   0.0035   0.0058   0.0047  -0.0028  -0.0040   0.0018   0.00  640.4
2022/01/01 02:20:12.000   1112161.7847  -4842854.6255   3985497.5742   1  18   0.0035   0.0058   0.0047  -0.0028  -0.0040   0.0018   0.00  198.5
2022/01/01 02:20:42.000   1112161.7845  -4842854.6242   3985497.5740   1  18   0.0035   0.0058   0.0047  -0.0028  -0.0040   0.0019   0.00  646.1
2022/01/01 02:21:12.000   1112161.7841  -4842854.6249   3985497.5739   1  18   0.0035   0.0058   0.0047  -0.0028  -0.0040   0.0019   0.00  526.2
2022/01/01 02:21:42.000   1112161.7839  -4842854.6261   3985497.5744   1  18   0.0035   0.0058   0.0047  -0.0028  -0.0040   0.0019   0.00  352.4
2022/01/01 02:22:12.000   1112161.7844  -4842854.6253   3985497.5741   1  18   0.0035   0.0059   0.0048  -0.0028  -0.0040   0.0019   0.00  372.3
2022/01/01 02:22:42.000   1112161.7843  -4842854.6246   3985497.5738   1  18   0.0035   0.0059   0.0048  -0.0028  -0.0040   0.0019   0.00  223.3
2022/01/01 02:23:12.000   1112161.7837  -4842854.6253   3985497.5734   1  18   0.0035   0.0059   0.0048  -0.0028  -0.0040   0.0019   0.00  144.6
2022/01/01 02:23:42.000   1112161.7841  -4842854.6245   3985497.5742   1  18   0.0035   0.0059   0.0048  -0.0028  -0.0040   0.0019   0.00  545.2
2022/01/01 02:24:12.000   1112161.7836  -4842854.6259   3985497.5737   1  18   0.0035   0.0059   0.0048  -0.0028  -0.0040   0.0019   0.00  390.3
2022/01/01 02:24:42.000   1112161.7840  -4842854.6257   3985497.5740   1  18   0.0035   0.0059   0.0048  -0.0028  -0.0041   0.0019   0.00  436.8
2022/01/01 02:25:12.000   1112161.7837  -4842854.6249   3985497.5745   1  18   0.0035   0.0059   0.0048  -0.0028  -0.0041   0.0020   0.00  459.5
2022/01/01 02:25:42.000   1112161.7846  -4842854.6262   3985497.5747   1  18   0.0035   0.0059   0.0048  -0.0028  -0.0041   0.0020   0.00  644.3
2022/01/01 02:26:12.000   1112161.7840  -4842854.6252   3985497.5750   1  18   0.0035   0.0059   0.0048  -0.0029  -0.0041   0.0020   0.00  330.3
2022/01/01 02:26:42.000   1112161.7842  -4842854.6257   3985497.5749   1  18   0.0035   0.0059   0.0049  -0.0029  -0.0041   0.0020   0.00  275.8
2022/01/01 02:27:12.000   1112161.7846  -4842854.6251   3985497.5733   1  18   0.0035   0.0059   0.0049  -0.0029  -0.0041   0.0020   0.00  400.4
2022/01/01 02:27:42.000   1112161.7840  -4842854.6241   3985497.5727   1  18   0.0036   0.0059   0.0049  -0.0029  -0.0041   0.0020   0.00  134.0
2022/01/01 02:28:12.000   1112161.7836  -4842854.6253   3985497.5740   1  18   0.0036   0.0059   0.0049  -0.0029  -0.0041   0.0020   0.00  169.9
2022/01/01 02:28:42.000   1112161.7842  -4842854.6264   3985497.5748   1  18   0.0036   0.0059   0.0049  -0.0029  -0.0042   0.0020   0.00  225.2
2022/01/01 02:29:12.000   1112161.7843  -4842854.6249   3985497.5742   1  18   0.0036   0.0059   0.0049  -0.0029  -0.0042   0.0021   0.00  107.6
2022/01/01 02:29:42.000   1112161.7850  -4842854.6256   3985497.5744   1  18   0.0036   0.0059   0.0049  -0.0029  -0.0042   0.0021   0.00  180.4
2022/01/01 02:30:12.000   1112161.7844  -4842854.6246   3985497.5751   1  18   0.0036   0.0059   0.0050  -0.0029  -0.0042   0.0021   0.00  111.0
2022/01/01 02:30:42.000   1112161.7839  -4842854.6245   3985497.5741   1  18   0.0036   0.0060   0.0050  -0.0029  -0.0042   0.0021   0.00  127.6
2022/01/01 02:31:12.000   1112161.7846  -4842854.6255   3985497.5740   1  18   0.0036   0.0060   0.0050  -0.0029  -0.0042   0.0021   0.00  125.2
2022/01/01 02:31:42.000   1112161.7846  -4842854.6258   3985497.5740   1  18   0.0036   0.0060   0.0050  -0.0029  -0.0043   0.0021   0.00  331.7
2022/01/01 02:32:12.000   1112161.7835  -4842854.6248   3985497.5729   1  18   0.0036   0.0060   0.0050  -0.0030  -0.0043   0.0021   0.00  316.8
2022/01/01 02:32:42.000   1112161.7842  -4842854.6251   3985497.5738   1  18   0.0036   0.0060   0.0050  -0.0030  -0.0043   0.0021   0.00  188.8
2022/01/01 02:33:12.000   1112161.7841  -4842854.6245   3985497.5743   1  18   0.0036   0.0060   0.0050  -0.0030  -0.0043   0.0022   0.00  184.9
2022/01/01 02:33:42.000   1112161.7849  -4842854.6251   3985497.5750   1  18   0.0036   0.0060   0.0051  -0.0030  -0.0043   0.0022   0.00  188.2
2022/01/01 02:34:12.000   1112161.7840  -4842854.6249   3985497.5744   1  18   0.0036   0.0060   0.0051  -0.0030  -0.0043   0.0022   0.00  188.0
2022/01/01 02:34:42.000   1112161.7847  -4842854.6268   3985497.5750   1  19   0.0036   0.0060   0.0050  -0.0031  -0.0043   0.0023   0.00  142.2
2022/01/01 02:35:12.000   1112161.7844  -4842854.6238   3985497.5735   1  19   0.0036   0.0060   0.0050  -0.0031  -0.0043   0.0023   0.00  225.8
2022/01/01 02:35:42.000   1112161.7834  -4842854.6253   3985497.5735   1  19   0.0036   0.0060   0.0050  -0.0031  -0.0043   0.0023   0.00  189.5
2022/01/01 02:36:12.000   1112161.7846  -4842854.6255   3985497.5736   1  19   0.0036   0.0060   0.0051  -0.0031  -0.0043   0.0023   0.00  196.7
2022/01/01 02:36:42.000   1112161.7841  -4842854.6252   3985497.5745   1  18   0.0036   0.0061   0.0055  -0.0032  -0.0046   0.0026   0.00   83.2
2022/01/01 02:37:12.000   1112161.7839  -4842854.6253   3985497.5730   1  18   0.0037   0.0061   0.0056  -0.0032  -0.0046   0.0026   0.00  130.6
2022/01/01 02:37:42.000   1112161.7841  -4842854.6250   3985497.5744   1  18   0.0037   0.0062   0.0056  -0.0032  -0.0047   0.0026   0.00  215.7
2022/01/01 02:38:12.000   1112161.7840  -4842854.6249   3985497.5744   1  18   0.0037   0.0062   0.0056  -0.0033  -0.0047   0.0026   0.00  185.0
2022/01/01 02:38:42.000   1112161.7841  -4842854.6246   3985497.5741   1  18   0.0037   0.0062   0.0056  -0.0033  -0.0047   0.0026   0.00  304.8
2022/01/01 02:39:12.000   1112161.7840  -4842854.6253   3985497.5747   1  18   0.0037   0.0062   0.0056  -0.0033  -0.0047   0.0027   0.00  302.6
2022/01/01 02:39:42.000   1112161.7848  -4842854.6243   3985497.5730   1  18   0.0037   0.0062   0.0056  -0.0033  -0.0047   0.0027   0.00  424.0
2022/01/01 02:40:12.000   1112161.7840  -4842854.6243   3985497.5736   1  18   0.0037   0.0062   0.0057  -0.0033  -0.0048   0.0027   0.00  387.3
2022/01/01 02:40:42.000   1112161.7831  -4842854.6232   3985497.5722   1  18   0.0037   0.0063   0.0057  -0.0033  -0.0048   0.0027   0.00  288.2
2022/01/01 02:41:12.000   1112161.7837  -4842854.6244   3985497.5738   1  18   0.0037   0.0063   0.0057  -0.0033  -0.0048   0.0027   0.00  304.5
2022/01/01 02:41:42.000   1112161.7840  -4842854.6259   3985497.5750   1  18   0.0037   0.0063   0.0057  -0.0034  -0.0048   0.0028   0.00  511.4
2022/01/01 02:42:12.000   1112161.7840  -4842854.6244   3985497.5745   1  17   0.0037   0.0069   0.0059  -0.0035  -0.0052   0.0028   0.00  220.2
2022/01/01 02:42:42.000   1112161.7839  -4842854.6243   3985497.5752   1  17   0.0037   0.0069   0.0059  -0.0035  -0.0052   0.0028   0.00  334.6
2022/01/01 02:43:12.000   1112161.7846  -4842854.6261   3985497.5751   1  17   0.0038   0.0069   0.0059  -0.0035  -0.0052   0.0029   0.00  218.0
2022/01/01 02:43:42.000   1112161.7844  -4842854.6256   3985497.5740   1  17   0.0038   0.0069   0.0059  -0.0035  -0.0053   0.0029   0.00  391.2
2022/01/01 02:44:12.000   1112161.7846  -4842854.6248   3985497.5741   1  17   0.0038   0.0070   0.0059  -0.0036  -0.0053   0.0029   0.00  201.6
2022/01/01 02:44:42.000   1112161.7832  -4842854.6231   3985497.5726   1  17   0.0038   0.0070   0.0060  -0.0036  -0.0053   0.0029   0.00  169.3
2022/01/01 02:45:12.000   1112161.7846  -4842854.6247   3985497.5745   1  17   0.0038   0.0070   0.0060  -0.0036  -0.0053   0.0029   0.00  135.9
2022/01/01 02:45:42.000   1112161.7851  -4842854.6259   3985497.5745   1  17   0.0038   0.0070   0.0060  -0.0036  -0.0054   0.0030   0.00  150.0
2022/01/01 02:46:12.000   1112161.7839  -4842854.6240   3985497.5736   1  17   0.0038   0.0070   0.0060  -0.0036  -0.0054   0.0030   0.00  147.0
2022/01/01 02:46:42.000   1112161.7845  -4842854.6243   3985497.5742   1  16   0.0038   0.0073   0.0061  -0.0036  -0.0056   0.0030   0.00  334.5
2022/01/01 02:47:12.000   1112161.7842  -4842854.6238   3985497.5733   1  16   0.0038   0.0073   0.0061  -0.0036  -0.0056   0.0030   0.00  176.4
2022/01/01 02:47:42.000   1112161.7850  -4842854.6246   3985497.5746   1  16   0.0038   0.0073   0.0062  -0.0037  -0.0056   0.0030   0.00  297.7
2022/01/01 02:48:12.000   1112161.7835  -4842854.6251   3985497.5748   1  16   0.0039   0.0073   0.0062  -0.0037  -0.0057   0.0031   0.00  217.7
2022/01/01 02:48:42.000   1112161.7844  -4842854.6257   3985497.5748   1  16   0.0039   0.0073   0.0062  -0.0037  -0.0057   0.0031   0.00  416.3
2022/01/01 02:49:12.000   1112161.7841  -4842854.6235   3985497.5743   1  16   0.0039   0.0074   0.0062  -0.0037  -0.0057   0.0031   0.00  430.8
2022/01/01 02:49:42.000   1112161.7837  -4842854.6246   3985497.5734   1  16   0.0039   0.0074   0.0063  -0.0038  -0.0057   0.0031   0.00  359.0
2022/01/01 02:50:12.000   1112161.7844  -4842854.6245   3985497.5744   1  16   0.0039   0.0074   0.0063  -0.0038  -0.0058   0.0032   0.00  431.3
2022/01/01 02:50:42.000   1112161.7841  -4842854.6241   3985497.5744   1  16   0.0039   0.0074   0.0063  -0.0038  -0.0058   0.0032   0.00  192.6
2022/01/01 02:51:12.000   1112161.7834  -4842854.6247   3985497.5745   1  16   0.0039   0.0074   0.0063  -0.0038  -0.0058   0.0032   0.00  266.9
2022/01/01 02:51:42.000   1112161.7840  -4842854.6245   3985497.5742   1  16   0.0039   0.0075   0.0064  -0.0039  -0.0059   0.0032   0.00  377.3
2022/01/01 02:52:12.000   1112161.7836  -4842854.6247   3985497.5733   1  17   0.0036   0.0068   0.0061  -0.0032  -0.0054   0.0028   0.00  255.8
2022/01/01 02:52:42.000   1112161.7834  -4842854.6245   3985497.5739   1  17   0.0036   0.0068   0.0061  -0.0032  -0.0054   0.0028   0.00  145.2
2022/01/01 02:53:12.000   1112161.7835  -4842854.6229   3985497.5727   1  17   0.0036   0.0068   0.0061  -0.0032  -0.0054   0.0028   0.00   99.7
2022/01/01 02:53:42.000   1112161.7834  -4842854.6244   3985497.5734   1  17   0.0036   0.0069   0.0062  -0.0032  -0.0054   0.0028   0.00  267.0
2022/01/01 02:54:12.000   1112161.7840  -4842854.6229   3985497.5729   1  17   0.0036   0.0069   0.0062  -0.0033  -0.0054   0.0028   0.00  152.4
2022/01/01 02:54:42.000   1112161.7840  -4842854.6244   3985497.5741   1  17   0.0036   0.0069   0.0062  -0.0033  -0.0055   0.0028   0.00  201.4
2022/01/01 02:55:12.000   1112161.7835  -4842854.6236   3985497.5734   1  17   0.0036   0.0069   0.0062  -0.0033  -0.0055   0.0029   0.00  184.9
2022/01/01 02:55:42.000   1112161.7841  -4842854.6238   3985497.5734   1  17   0.0036   0.0069   0.0062  -0.0033  -0.0055   0.0029   0.00  150.4
2022/01/01 02:56:12.000   1112161.7843  -4842854.6246   3985497.5740   1  17   0.0037   0.0069   0.0062  -0.0033  -0.0055   0.0029   0.00  277.0
2022/01/01 02:56:42.000   1112161.7846  -4842854.6251   3985497.5740   1  17   0.0037   0.0070   0.0063  -0.0034  -0.0056   0.0029   0.00  203.3
2022/01/01 02:57:12.000   1112161.7841  -4842854.6249   3985497.5740   1  17   0.0037   0.0070   0.0063  -0.0034  -0.0056   0.0029   0.00  313.2
2022/01/01 02:57:42.000   1112161.7839  -4842854.6246   3985497.5740   1  17   0.0037   0.0070   0.0063  -0.0034  -0.0056   0.0029   0.00  365.2
2022/01/01 02:58:12.000   1112161.7834  -4842854.6239   3985497.5734   1  17   0.0037   0.0070   0.0063  -0.0034  -0.0056   0.0030   0.00   69.0
2022/01/01 02:58:42.000   1112161.7837  -4842854.6236   3985497.5736   1  17   0.0037   0.0070   0.0063  -0.0034  -0.0056   0.0030   0.00  157.5
2022/01/01 02:59:12.000   1112161.7833  -4842854.6243   3985497.5736   1  17   0.0037   0.0070   0.0063  -0.0035  -0.0057   0.0030   0.00  156.2
2022/01/01 02:59:42.000   1112161.7839  -4842854.6247   3985497.5734   1  17   0.0037   0.0071   0.0064  -0.0035  -0.0057   0.0030   0.00  134.9
2022/01/01 03:00:12.000   1112161.7841  -4842854.6242   3985497.5734   1  17   0.0037   0.0071   0.0064  -0.0035  -0.0057   0.0030   0.00  270.3
2022/01/01 03:00:42.000   1112161.7844  -4842854.6249   3985497.5738   1  17   0.0037   0.0071   0.0064  -0.0035  -0.0057   0.0030   0.00   84.4
2022/01/01 03:01:12.000   1112161.7837  -4842854.6241   3985497.5723   1  17   0.0037   0.0071   0.0064  -0.0035  -0.0057   0.0031   0.00  241.9
2022/01/01 03:01:42.000   1112161.7839  -4842854.6240   3985497.5729   1  17   0.0037   0.0071   0.0064  -0.0036  -0.0058   0.0031   0.00  140.3
2022/01/01 03:02:12.000   1112161.7842  -4842854.6256   3985497.5737   1  17   0.0037   0.0072   0.0064  -0.0036  -0.0058   0.0031   0.00  163.9
2022/01/01 03:02:42.000   1112161.7841  -4842854.6253   3985497.5740   1  17   0.0038   0.0072   0.0065  -0.0036  -0.0058   0.0031   0.00  132.7
2022/01/01 03:03:12.000   1112161.7842  -4842854.6237   3985497.5735   1  17   0.0038   0.0072   0.0065  -0.0036  -0.0058   0.0031   0.00  272.9
2022/01/01 03:03:42.000   1112161.7836  -4842854.6238   3985497.5739   1  17   0.0038   0.0072   0.0065  -0.0036  -0.0059   0.0031   0.00   96.0
2022/01/01 03:04:12.000   1112161.7838  -4842854.6257   3985497.5740   1  17   0.0038   0.0072   0.0065  -0.0037  -0.0059   0.0032   0.00   90.0
2022/01/01 03:04:42.000   1112161.7833  -4842854.6232   3985497.5726   1  17   0.0038   0.0073   0.0065  -0.0037  -0.0059   0.0032   0.00  159.3
2022/01/01 03:05:12.000   1112161.7833  -4842854.6249   3985497.5743   1  17   0.0038   0.0073   0.0065  -0.0037  -0.0059   0.0032   0.00  393.7
2022/01/01 03:05:42.000   1112161.7841  -4842854.6247   3985497.5733   1  17   0.0038   0.0073   0.0066  -0.0037  -0.0059   0.0032   0.00  159.7
2022/01/01 03:06:12.000   1112161.7832  -4842854.6242   3985497.5732   1  17   0.0038   0.0073   0.0066  -0.0037  -0.0060   0.0032   0.00  192.0
2022/01/01 03:06:42.000   1112161.7845  -4842854.6239   3985497.5728   1  17   0.0038   0.0074   0.0066  -0.0038  -0.0060   0.0033   0.00  227.4
2022/01/01 03:07:12.000   1112161.7844  -4842854.6235   3985497.5727   1  17   0.0038   0.0074   0.0066  -0.0038  -0.0060   0.0033   0.00  212.8
2022/01/01 03:07:42.000   1112161.7837  -4842854.6227   3985497.5724   1  17   0.0038   0.0074   0.0066  -0.0038  -0.0060   0.0033   0.00  532.9
2022/01/01 03:08:12.000   1112161.7834  -4842854.6245   3985497.5726   1  17   0.0039   0.0074   0.0066  -0.0038  -0.0061   0.0033   0.00  265.1
2022/01/01 03:08:42.000   1112161.7844  -4842854.6245   3985497.5732   1  17   0.0039   0.0074   0.0067  -0.0039  -0.0061   0.0033   0.00  180.5
2022/01/01 03:09:12.000   1112161.7830  -4842854.6231   3985497.5726   1  17   0.0039   0.0075   0.0067  -0.0039  -0.0061   0.0033   0.00  221.6
2022/01/01 03:09:42.000   1112161.7836  -4842854.6233   3985497.5725   1  17   0.0039   0.0075   0.0067  -0.0039  -0.0061   0.0034   0.00  309.0
2022/01/01 03:10:12.000   1112161.7853  -4842854.6244   3985497.5733   1  17   0.0039   0.0075   0.0067  -0.0039  -0.0061   0.0034   0.00  312.6
2022/01/01 03:10:42.000   1112161.7841  -4842854.6244   3985497.5742   1  17   0.0039   0.0075   0.0067  -0.0039  -0.0062   0.0034   0.00  230.6
2022/01/01 03:11:12.000   1112161.7844  -4842854.6246   3985497.5734   1  17   0.0039   0.0076   0.0067  -0.0040  -0.0062   0.0034   0.00  305.6
2022/01/01 03:11:42.000   1112161.7839  -4842854.6242   3985497.5733   1  17   0.0039   0.0076   0.0068  -0.0040  -0.0062   0.0034   0.00  216.9
2022/01/01 03:12:12.000   1112161.7839  -4842854.6232   3985497.5723   1  17   0.0039   0.0076   0.0068  -0.0040  -0.0062   0.0034   0.00  312.4
2022/01/01 03:12:42.000   1112161.7833  -4842854.6224   3985497.5720   1  17   0.0039   0.0076   0.0068  -0.0040  -0.0062   0.0035   0.00  190.7
2022/01/01 03:13:12.000   1112161.7842  -4842854.6236   3985497.5722   1  16   0.0040   0.0086   0.0072  -0.0043  -0.0070   0.0037   0.00  147.3
2022/01/01 03:13:42.000   1112161.7836  -4842854.6243   3985497.5726   1  16   0.0040   0.0086   0.0072  -0.0044  -0.0070   0.0037   0.00  218.6
2022/01/01 03:14:12.000   1112161.7837  -4842854.6244   3985497.5741   1  16   0.0040   0.0086   0.0072  -0.0044  -0.0070   0.0037   0.00  213.9
2022/01/01 03:14:42.000   1112161.7839  -4842854.6235   3985497.5735   1  17   0.0040   0.0085   0.0070  -0.0044  -0.0068   0.0037   0.00  390.9
2022/01/01 03:15:12.000   1112161.7843  -4842854.6246   3985497.5742   1  17   0.0041   0.0085   0.0070  -0.0044  -0.0068   0.0038   0.00  318.9
2022/01/01 03:15:42.000   1112161.7850  -4842854.6243   3985497.5738   1  17   0.0041   0.0086   0.0070  -0.0045  -0.0068   0.0038   0.00  180.4
2022/01/01 03:16:12.000   1112161.7847  -4842854.6264   3985497.5755   1  17   0.0041   0.0086   0.0070  -0.0045  -0.0069   0.0038   0.00  198.0
2022/01/01 03:16:42.000   1112161.7833  -4842854.6221   3985497.5728   1  17   0.0041   0.0086   0.0070  -0.0045  -0.0069   0.0038   0.00  154.1
2022/01/01 03:17:12.000   1112161.7843  -4842854.6269   3985497.5755   1  17   0.0041   0.0086   0.0070  -0.0046  -0.0069   0.0038   0.00  201.0
2022/01/01 03:17:42.000   1112161.7834  -4842854.6234   3985497.5731   1  17   0.0041   0.0086   0.0070  -0.0046  -0.0069   0.0039   0.00  203.3
2022/01/01 03:18:12.000   1112161.7843  -4842854.6236   3985497.5726   1  18   0.0038   0.0079   0.0062  -0.0039  -0.0060   0.0031   0.00  118.8
2022/01/01 03:18:42.000   1112161.7835  -4842854.6228   3985497.5729   1  17   0.0038   0.0084   0.0071  -0.0040  -0.0068   0.0032   0.00  295.2
2022/01/01 03:19:12.000   1112161.7850  -4842854.6249   3985497.5740   1  17   0.0038   0.0084   0.0071  -0.0040  -0.0068   0.0032   0.00  210.9
2022/01/01 03:19:42.000   1112161.7842  -4842854.6242   3985497.5731   1  17   0.0038   0.0084   0.0070  -0.0040  -0.0068   0.0032   0.00   88.6
2022/01/01 03:20:12.000   1112161.7843  -4842854.6253   3985497.5744   1  17   0.0038   0.0084   0.0070  -0.0041  -0.0067   0.0032   0.00  471.1
2022/01/01 03:20:42.000   1112161.7838  -4842854.6248   3985497.5744   1  17   0.0038   0.0084   0.0070  -0.0041  -0.0067   0.0032   0.00  134.8
2022/01/01 03:21:12.000   1112161.7841  -4842854.6257   3985497.5748   1  17   0.0038   0.0084   0.0070  -0.0041  -0.0067   0.0032   0.00  369.8
2022/01/01 03:21:42.000   1112161.7839  -4842854.6272   3985497.5754   1  17   0.0039   0.0084   0.0070  -0.0041  -0.0067   0.0033   0.00  267.4
2022/01/01 03:22:12.000   1112161.7841  -4842854.6248   3985497.5729   1  17   0.0039   0.0084   0.0069  -0.0041  -0.0067   0.0033   0.00  144.6
2022/01/01 03:22:42.000   1112161.7837  -4842854.6242   3985497.5728   1  17   0.0039   0.0084   0.0069  -0.0041  -0.0067   0.0033   0.00  180.6
