% program   : RTKLIB ver.demo5 b34g
% inp file  : kitg0010.20o
% inp file  : brdm0010.20p
% inp file  : gbm20863.sp3
% inp file  : gbm20863.clk
% obs start : 2019/12/31 23:59:42.0 UTC (week2086 259200.0s)
% obs end   : 2020/01/01 23:59:12.0 UTC (week2086 345570.0s)
% pos mode  : PPP Kinematic
% solution  : Forward
% elev mask : 10.0 deg
% dynamics  : off
% tidecorr  : on
% tropo opt : Estimate ZTD
% ephemeris : Precise
% navi sys  : GPS Galileo
% antenna1  :                       ( 0.0000  0.0000  0.0000)
%
% (x/y/z-ecef=WGS84,Q=1:fix,2:float,3:sbas,4:dgps,5:single,6:ppp,ns=# of satellites)
%  UTC                       x-ecef(m)      y-ecef(m)      z-ecef(m)   Q  ns   sdx(m)   sdy(m)   sdz(m)  sdxy(m)  sdyz(m)  sdzx(m) age(s)  ratio
2019/12/31 23:59:42.000   1944880.8084   4556785.3784   4004207.5478   6   8   1.6595   2.5674   2.5572   1.7236   1.9675   1.5014   0.00    0.0
2020/01/01 00:00:12.000   1944880.5743   4556785.0541   4004207.9171   6  12   1.1384   1.6870   1.3987   1.1510   1.1857   0.9214   0.00    0.0
2020/01/01 00:00:42.000   1944880.4477   4556785.0682   4004207.8684   6  12   0.9147   1.3419   1.0112   0.9162   0.9079   0.7041   0.00    0.0
2020/01/01 00:01:12.000   1944880.3662   4556785.0307   4004207.6266   6  12   0.7809   1.1407   0.7924   0.7767   0.7505   0.5779   0.00    0.0
2020/01/01 00:01:42.000   1944880.3185   4556785.0235   4004207.4986   6  12   0.6893   1.0042   0.6505   0.6815   0.6483   0.4948   0.00    0.0
2020/01/01 00:02:12.000   1944880.3684   4556785.0004   4004207.4174   6  12   0.6217   0.9037   0.5530   0.6116   0.5772   0.4366   0.00    0.0
2020/01/01 00:02:42.000   1944880.3954   4556785.0407   4004207.3598   6  12   0.5695   0.8259   0.4834   0.5579   0.5255   0.3944   0.00    0.0
2020/01/01 00:03:12.000   1944880.3897   4556784.9419   4004207.3249   6  12   0.5278   0.7634   0.4322   0.5154   0.4863   0.3627   0.00    0.0
2020/01/01 00:03:42.000   1944880.3388   4556784.9279   4004207.2826   6  12   0.4937   0.7117   0.3933   0.4808   0.4553   0.3382   0.00    0.0
2020/01/01 00:04:12.000   1944880.3562   4556784.9675   4004207.2836   6  11   0.4656   0.6694   0.3629   0.4526   0.4303   0.3186   0.00    0.0
2020/01/01 00:04:42.000   1944880.3210   4556784.9432   4004207.2503   6  11   0.4412   0.6319   0.3385   0.4279   0.4089   0.3020   0.00    0.0
2020/01/01 00:05:12.000   1944880.3544   4556784.9841   4004207.2513   6  11   0.4199   0.5986   0.3186   0.4063   0.3903   0.2880   0.00    0.0
2020/01/01 00:05:42.000   1944880.3412   4556784.9653   4004207.2285   6  11   0.4011   0.5689   0.3020   0.3873   0.3740   0.2760   0.00    0.0
2020/01/01 00:06:12.000   1944880.3202   4556784.9883   4004207.2245   6  11   0.3844   0.5421   0.2878   0.3704   0.3594   0.2655   0.00    0.0
2020/01/01 00:06:42.000   1944880.3528   4556785.0468   4004207.2410   6  11   0.3694   0.5179   0.2755   0.3553   0.3461   0.2562   0.00    0.0
2020/01/01 00:07:12.000   1944880.3719   4556785.0998   4004207.2596   6  11   0.3559   0.4957   0.2645   0.3418   0.3340   0.2479   0.00    0.0
2020/01/01 00:07:42.000   1944880.4043   4556785.1442   4004207.2684   6  11   0.3435   0.4753   0.2546   0.3294   0.3226   0.2403   0.00    0.0
2020/01/01 00:08:12.000   1944880.4333   4556785.1500   4004207.2721   6  11   0.3323   0.4564   0.2456   0.3182   0.3121   0.2334   0.00    0.0
2020/01/01 00:08:42.000   1944880.4636   4556785.2049   4004207.2905   6  11   0.3219   0.4388   0.2373   0.3078   0.3020   0.2270   0.00    0.0
2020/01/01 00:09:12.000   1944880.4743   4556785.2162   4004207.2822   6  11   0.3123   0.4223   0.2295   0.2981   0.2925   0.2209   0.00    0.0
2020/01/01 00:09:42.000   1944880.4827   4556785.2332   4004207.2816   6  12   0.3033   0.4068   0.2221   0.2890   0.2833   0.2153   0.00    0.0
2020/01/01 00:10:12.000   1944880.4938   4556785.2393   4004207.2897   6  12   0.2945   0.3906   0.2143   0.2796   0.2734   0.2092   0.00    0.0
2020/01/01 00:10:42.000   1944880.5031   4556785.2752   4004207.2984   6  12   0.2858   0.3739   0.2059   0.2697   0.2627   0.2026   0.00    0.0
2020/01/01 00:11:12.000   1944880.5307   4556785.3018   4004207.3123   6  12   0.2770   0.3566   0.1968   0.2591   0.2510   0.1953   0.00    0.0
2020/01/01 00:11:42.000   1944880.5382   4556785.2894   4004207.3107   6  12   0.2681   0.3387   0.1871   0.2480   0.2385   0.1874   0.00    0.0
2020/01/01 00:12:12.000   1944880.5304   4556785.2746   4004207.3010   6  12   0.2592   0.3206   0.1770   0.2366   0.2255   0.1792   0.00    0.0
2020/01/01 00:12:42.000   1944880.5178   4556785.2690   4004207.2960   6  12   0.2504   0.3028   0.1670   0.2252   0.2127   0.1709   0.00    0.0
2020/01/01 00:13:12.000   1944880.5209   4556785.2753   4004207.2894   6  12   0.2419   0.2857   0.1572   0.2140   0.2002   0.1627   0.00    0.0
2020/01/01 00:13:42.000   1944880.5076   4556785.2550   4004207.2771   6  12   0.2338   0.2696   0.1480   0.2035   0.1883   0.1550   0.00    0.0
2020/01/01 00:14:12.000   1944880.5050   4556785.2567   4004207.2710   6  12   0.2261   0.2546   0.1395   0.1935   0.1773   0.1477   0.00    0.0
2020/01/01 00:14:42.000   1944880.5141   4556785.2601   4004207.2717   6  12   0.2188   0.2408   0.1316   0.1843   0.1672   0.1409   0.00    0.0
2020/01/01 00:15:12.000   1944880.5489   4556785.3035   4004207.2947   6  12   0.2120   0.2281   0.1244   0.1757   0.1579   0.1347   0.00    0.0
2020/01/01 00:15:42.000   1944880.5652   4556785.3488   4004207.3181   6  12   0.2056   0.2165   0.1179   0.1679   0.1494   0.1289   0.00    0.0
2020/01/01 00:16:12.000   1944880.5789   4556785.3719   4004207.3329   6  12   0.1996   0.2060   0.1120   0.1607   0.1418   0.1237   0.00    0.0
2020/01/01 00:16:42.000   1944880.5871   4556785.3926   4004207.3470   6  12   0.1940   0.1963   0.1067   0.1541   0.1348   0.1189   0.00    0.0
2020/01/01 00:17:12.000   1944880.5973   4556785.3999   4004207.3521   6  12   0.1886   0.1875   0.1018   0.1480   0.1285   0.1146   0.00    0.0
2020/01/01 00:17:42.000   1944880.5933   4556785.3972   4004207.3464   6  12   0.1837   0.1795   0.0975   0.1424   0.1228   0.1105   0.00    0.0
2020/01/01 00:18:12.000   1944880.5943   4556785.4048   4004207.3521   6  12   0.1790   0.1720   0.0934   0.1373   0.1175   0.1068   0.00    0.0
2020/01/01 00:18:42.000   1944880.5863   4556785.3991   4004207.3538   6  12   0.1746   0.1653   0.0899   0.1325   0.1127   0.1034   0.00    0.0
2020/01/01 00:19:12.000   1944880.5925   4556785.4068   4004207.3562   6  12   0.1704   0.1589   0.0865   0.1281   0.1083   0.1003   0.00    0.0
2020/01/01 00:19:42.000   1944880.5821   4556785.4015   4004207.3526   6  12   0.1664   0.1532   0.0835   0.1240   0.1043   0.0974   0.00    0.0
2020/01/01 00:20:12.000   1944880.5816   4556785.4076   4004207.3497   6  12   0.1626   0.1478   0.0807   0.1201   0.1005   0.0947   0.00    0.0
2020/01/01 00:20:42.000   1944880.5716   4556785.4015   4004207.3451   6  12   0.1590   0.1428   0.0782   0.1166   0.0971   0.0922   0.00    0.0
2020/01/01 00:21:12.000   1944880.5738   4556785.4024   4004207.3454   6  12   0.1556   0.1381   0.0758   0.1132   0.0939   0.0898   0.00    0.0
2020/01/01 00:21:42.000   1944880.5703   4556785.3962   4004207.3486   6  12   0.1523   0.1338   0.0736   0.1101   0.0909   0.0876   0.00    0.0
2020/01/01 00:22:12.000   1944880.5653   4556785.3964   4004207.3400   6  12   0.1492   0.1297   0.0716   0.1072   0.0882   0.0856   0.00    0.0
2020/01/01 00:22:42.000   1944880.5506   4556785.3876   4004207.3392   6  12   0.1462   0.1259   0.0696   0.1044   0.0856   0.0836   0.00    0.0
2020/01/01 00:23:12.000   1944880.5347   4556785.3775   4004207.3318   6  12   0.1433   0.1224   0.0679   0.1018   0.0832   0.0818   0.00    0.0
2020/01/01 00:23:42.000   1944880.5243   4556785.3736   4004207.3294   6  12   0.1406   0.1190   0.0663   0.0993   0.0810   0.0800   0.00    0.0
2020/01/01 00:24:12.000   1944880.5226   4556785.3741   4004207.3296   6  12   0.1380   0.1158   0.0648   0.0970   0.0789   0.0785   0.00    0.0
2020/01/01 00:24:42.000   1944880.5178   4556785.3736   4004207.3307   6  12   0.1355   0.1129   0.0633   0.0948   0.0770   0.0769   0.00    0.0
2020/01/01 00:25:12.000   1944880.5142   4556785.3709   4004207.3274   6  12   0.1330   0.1101   0.0621   0.0927   0.0751   0.0755   0.00    0.0
2020/01/01 00:25:42.000   1944880.5107   4556785.3715   4004207.3294   6  12   0.1307   0.1074   0.0608   0.0907   0.0733   0.0741   0.00    0.0
2020/01/01 00:26:12.000   1944880.5069   4556785.3743   4004207.3287   6  12   0.1285   0.1048   0.0595   0.0888   0.0716   0.0727   0.00    0.0
2020/01/01 00:26:42.000   1944880.5027   4556785.3721   4004207.3251   6  12   0.1263   0.1025   0.0585   0.0870   0.0701   0.0715   0.00    0.0
2020/01/01 00:27:12.000   1944880.4967   4556785.3650   4004207.3231   6  12   0.1243   0.1002   0.0574   0.0854   0.0687   0.0703   0.00    0.0
2020/01/01 00:27:42.000   1944880.4886   4556785.3619   4004207.3202   6  12   0.1223   0.0981   0.0565   0.0837   0.0673   0.0692   0.00    0.0
2020/01/01 00:28:12.000   1944880.4785   4556785.3549   4004207.3181   6  12   0.1203   0.0961   0.0555   0.0821   0.0660   0.0681   0.00    0.0
2020/01/01 00:28:42.000   1944880.4730   4556785.3613   4004207.3194   6  12   0.1185   0.0942   0.0546   0.0806   0.0647   0.0671   0.00    0.0
2020/01/01 00:29:12.000   1944880.4556   4556785.3508   4004207.3151   6  12   0.1167   0.0922   0.0538   0.0792   0.0635   0.0661   0.00    0.0
2020/01/01 00:29:42.000   1944880.4546   4556785.3547   4004207.3193   6  12   0.1150   0.0905   0.0530   0.0779   0.0623   0.0652   0.00    0.0
2020/01/01 00:30:12.000   1944880.4535   4556785.3572   4004207.3169   6  12   0.1133   0.0888   0.0523   0.0766   0.0613   0.0642   0.00    0.0
2020/01/01 00:30:42.000   1944880.4528   4556785.3653   4004207.3192   6  12   0.1117   0.0872   0.0515   0.0754   0.0602   0.0634   0.00    0.0
2020/01/01 00:31:12.000   1944880.4520   4556785.3662   4004207.3162   6  12   0.1102   0.0856   0.0510   0.0742   0.0593   0.0626   0.00    0.0
2020/01/01 00:31:42.000   1944880.4453   4556785.3610   4004207.3159   6  12   0.1086   0.0842   0.0502   0.0730   0.0582   0.0618   0.00    0.0
2020/01/01 00:32:12.000   1944880.4477   4556785.3562   4004207.3214   6  12   0.1072   0.0829   0.0497   0.0719   0.0575   0.0611   0.00    0.0
2020/01/01 00:32:42.000   1944880.4385   4556785.3496   4004207.3218   6  12   0.1057   0.0815   0.0490   0.0708   0.0565   0.0603   0.00    0.0
2020/01/01 00:33:12.000   1944880.4359   4556785.3480   4004207.3185   6  12   0.1044   0.0802   0.0486   0.0698   0.0558   0.0596   0.00    0.0
2020/01/01 00:33:42.000   1944880.4376   4556785.3457   4004207.3167   6  12   0.1030   0.0789   0.0480   0.0688   0.0550   0.0589   0.00    0.0
2020/01/01 00:34:12.000   1944880.4352   4556785.3467   4004207.3151   6  12   0.1018   0.0778   0.0475   0.0679   0.0542   0.0583   0.00    0.0
2020/01/01 00:34:42.000   1944880.4412   4556785.3485   4004207.3203   6  12   0.1005   0.0765   0.0470   0.0669   0.0534   0.0576   0.00    0.0
2020/01/01 00:35:12.000   1944880.4453   4556785.3489   4004207.3214   6  12   0.0993   0.0754   0.0465   0.0660   0.0527   0.0570   0.00    0.0
2020/01/01 00:35:42.000   1944880.4467   4556785.3538   4004207.3222   6  12   0.0981   0.0744   0.0462   0.0652   0.0522   0.0564   0.00    0.0
2020/01/01 00:36:12.000   1944880.4378   4556785.3470   4004207.3174   6  12   0.0970   0.0734   0.0456   0.0644   0.0515   0.0559   0.00    0.0
2020/01/01 00:36:42.000   1944880.4330   4556785.3444   4004207.3122   6  12   0.0958   0.0724   0.0453   0.0636   0.0508   0.0553   0.00    0.0
2020/01/01 00:37:12.000   1944880.4352   4556785.3507   4004207.3135   6  12   0.0948   0.0714   0.0448   0.0628   0.0501   0.0548   0.00    0.0
2020/01/01 00:37:42.000   1944880.4246   4556785.3476   4004207.3078   6  12   0.0937   0.0705   0.0445   0.0621   0.0496   0.0543   0.00    0.0
2020/01/01 00:38:12.000   1944880.4199   4556785.3440   4004207.3100   6  12   0.0927   0.0696   0.0442   0.0613   0.0490   0.0538   0.00    0.0
2020/01/01 00:38:42.000   1944880.4199   4556785.3398   4004207.3086   6  12   0.0918   0.0687   0.0438   0.0607   0.0485   0.0534   0.00    0.0
2020/01/01 00:39:12.000   1944880.4197   4556785.3485   4004207.3121   6  12   0.0907   0.0679   0.0436   0.0599   0.0481   0.0529   0.00    0.0
2020/01/01 00:39:42.000   1944880.4159   4556785.3455   4004207.3057   6  12   0.0898   0.0671   0.0433   0.0593   0.0476   0.0525   0.00    0.0
2020/01/01 00:40:12.000   1944880.4139   4556785.3428   4004207.3097   6  12   0.0889   0.0663   0.0429   0.0587   0.0471   0.0520   0.00    0.0
2020/01/01 00:40:42.000   1944880.4087   4556785.3431   4004207.3096   6  12   0.0880   0.0655   0.0426   0.0580   0.0466   0.0515   0.00    0.0
2020/01/01 00:41:12.000   1944880.4110   4556785.3411   4004207.3101   6  12   0.0872   0.0649   0.0425   0.0574   0.0462   0.0512   0.00    0.0
2020/01/01 00:41:42.000   1944880.4096   4556785.3472   4004207.3054   6  12   0.0862   0.0641   0.0420   0.0568   0.0456   0.0508   0.00    0.0
2020/01/01 00:42:12.000   1944880.4067   4556785.3471   4004207.3082   6  12   0.0854   0.0636   0.0418   0.0562   0.0452   0.0504   0.00    0.0
2020/01/01 00:42:42.000   1944880.4025   4556785.3508   4004207.3136   6  12   0.0846   0.0628   0.0416   0.0557   0.0448   0.0500   0.00    0.0
2020/01/01 00:43:12.000   1944880.4011   4556785.3468   4004207.3140   6  12   0.0838   0.0620   0.0413   0.0551   0.0444   0.0496   0.00    0.0
2020/01/01 00:43:42.000   1944880.3950   4556785.3461   4004207.3099   6  12   0.0830   0.0615   0.0410   0.0546   0.0439   0.0493   0.00    0.0
2020/01/01 00:44:12.000   1944880.3897   4556785.3456   4004207.3079   6  12   0.0823   0.0609   0.0409   0.0540   0.0437   0.0489   0.00    0.0
2020/01/01 00:44:42.000   1944880.3856   4556785.3434   4004207.3066   6  12   0.0815   0.0603   0.0407   0.0535   0.0432   0.0486   0.00    0.0
2020/01/01 00:45:12.000   1944880.3831   4556785.3447   4004207.3048   6  12   0.0808   0.0598   0.0405   0.0530   0.0429   0.0483   0.00    0.0
2020/01/01 00:45:42.000   1944880.3792   4556785.3465   4004207.3054   6  12   0.0801   0.0592   0.0403   0.0526   0.0425   0.0480   0.00    0.0
2020/01/01 00:46:12.000   1944880.3853   4556785.3430   4004207.3122   6  12   0.0794   0.0585   0.0400   0.0521   0.0421   0.0477   0.00    0.0
2020/01/01 00:46:42.000   1944880.3871   4556785.3425   4004207.3133   6  12   0.0786   0.0579   0.0398   0.0515   0.0417   0.0473   0.00    0.0
2020/01/01 00:47:12.000   1944880.3821   4556785.3409   4004207.3141   6  12   0.0780   0.0576   0.0397   0.0511   0.0415   0.0470   0.00    0.0
2020/01/01 00:47:42.000   1944880.3772   4556785.3377   4004207.3109   6  12   0.0774   0.0571   0.0395   0.0507   0.0412   0.0468   0.00    0.0
2020/01/01 00:48:12.000   1944880.3730   4556785.3370   4004207.3049   6  12   0.0766   0.0565   0.0394   0.0502   0.0408   0.0464   0.00    0.0
2020/01/01 00:48:42.000   1944880.3714   4556785.3382   4004207.3040   6  12   0.0761   0.0560   0.0392   0.0497   0.0406   0.0462   0.00    0.0
2020/01/01 00:49:12.000   1944880.3672   4556785.3314   4004207.2993   6  12   0.0754   0.0555   0.0389   0.0493   0.0401   0.0458   0.00    0.0
2020/01/01 00:49:42.000   1944880.3660   4556785.3303   4004207.3007   6  12   0.0748   0.0550   0.0387   0.0488   0.0397   0.0455   0.00    0.0
2020/01/01 00:50:12.000   1944880.3671   4556785.3270   4004207.3019   6  13   0.0742   0.0546   0.0387   0.0484   0.0396   0.0452   0.00    0.0
2020/01/01 00:50:42.000   1944880.3652   4556785.3193   4004207.3004   6  13   0.0734   0.0532   0.0384   0.0475   0.0389   0.0448   0.00    0.0
2020/01/01 00:51:12.000   1944880.3637   4556785.3218   4004207.2966   6  13   0.0727   0.0526   0.0381   0.0468   0.0384   0.0444   0.00    0.0
2020/01/01 00:51:42.000   1944880.3578   4556785.3177   4004207.2968   6  13   0.0720   0.0519   0.0381   0.0463   0.0381   0.0441   0.00    0.0
2020/01/01 00:52:12.000   1944880.3563   4556785.3204   4004207.2956   6  13   0.0714   0.0514   0.0379   0.0458   0.0379   0.0438   0.00    0.0
2020/01/01 00:52:42.000   1944880.3576   4556785.3168   4004207.2940   6  13   0.0708   0.0510   0.0376   0.0453   0.0374   0.0435   0.00    0.0
2020/01/01 00:53:12.000   1944880.3568   4556785.3141   4004207.2939   6  13   0.0702   0.0505   0.0375   0.0449   0.0371   0.0433   0.00    0.0
2020/01/01 00:53:42.000   1944880.3574   4556785.3156   4004207.2936   6  13   0.0697   0.0501   0.0376   0.0445   0.0369   0.0430   0.00    0.0
2020/01/01 00:54:12.000   1944880.3539   4556785.3139   4004207.2939   6  12   0.0690   0.0497   0.0377   0.0440   0.0369   0.0427   0.00    0.0
2020/01/01 00:54:42.000   1944880.3526   4556785.3125   4004207.2988   6  12   0.0685   0.0494   0.0376   0.0436   0.0366   0.0424   0.00    0.0
2020/01/01 00:55:12.000   1944880.3503   4556785.3097   4004207.2953   6  12   0.0680   0.0491   0.0374   0.0432   0.0362   0.0422   0.00    0.0
2020/01/01 00:55:42.000   1944880.3459   4556785.3151   4004207.2895   6  12   0.0673   0.0485   0.0372   0.0427   0.0359   0.0418   0.00    0.0
2020/01/01 00:56:12.000   1944880.3423   4556785.3146   4004207.2840   6  12   0.0668   0.0483   0.0370   0.0423   0.0356   0.0416   0.00    0.0
2020/01/01 00:56:42.000   1944880.3399   4556785.3143   4004207.2837   6  12   0.0662   0.0479   0.0370   0.0417   0.0354   0.0413   0.00    0.0
2020/01/01 00:57:12.000   1944880.3348   4556785.3137   4004207.2805   6  12   0.0657   0.0475   0.0369   0.0413   0.0352   0.0409   0.00    0.0
2020/01/01 00:57:42.000   1944880.3332   4556785.3078   4004207.2786   6  12   0.0651   0.0471   0.0368   0.0410   0.0350   0.0407   0.00    0.0
2020/01/01 00:58:12.000   1944880.3331   4556785.3083   4004207.2820   6  12   0.0646   0.0469   0.0368   0.0405   0.0349   0.0405   0.00    0.0
2020/01/01 00:58:42.000   1944880.3371   4556785.3108   4004207.2894   6  12   0.0640   0.0468   0.0365   0.0402   0.0344   0.0401   0.00    0.0
2020/01/01 00:59:12.000   1944880.3370   4556785.3095   4004207.2922   6  13   0.0636   0.0464   0.0366   0.0397   0.0343   0.0399   0.00    0.0
2020/01/01 00:59:42.000   1944880.3376   4556785.3072   4004207.2958   6  13   0.0630   0.0459   0.0359   0.0392   0.0339   0.0395   0.00    0.0
2020/01/01 01:00:12.000   1944880.3347   4556785.3032   4004207.2915   6  14   0.0624   0.0456   0.0356   0.0389   0.0337   0.0392   0.00    0.0
2020/01/01 01:00:42.000   1944880.3342   4556785.3023   4004207.2911   6  14   0.0618   0.0446   0.0353   0.0387   0.0337   0.0388   0.00    0.0
2020/01/01 01:01:12.000   1944880.3306   4556785.3062   4004207.2919   6  14   0.0613   0.0444   0.0353   0.0383   0.0339   0.0385   0.00    0.0
2020/01/01 01:01:42.000   1944880.3301   4556785.3026   4004207.2887   6  14   0.0608   0.0440   0.0348   0.0381   0.0333   0.0383   0.00    0.0
2020/01/01 01:02:12.000   1944880.3282   4556785.3063   4004207.2818   6  15   0.0603   0.0436   0.0349   0.0376   0.0334   0.0380   0.00    0.0
2020/01/01 01:02:42.000   1944880.3257   4556785.3042   4004207.2796   6  15   0.0595   0.0433   0.0345   0.0372   0.0329   0.0375   0.00    0.0
2020/01/01 01:03:12.000   1944880.3269   4556785.3056   4004207.2836   6  15   0.0589   0.0427   0.0341   0.0368   0.0326   0.0371   0.00    0.0
2020/01/01 01:03:42.000   1944880.3197   4556785.3032   4004207.2812   6  15   0.0584   0.0425   0.0339   0.0364   0.0323   0.0367   0.00    0.0
2020/01/01 01:04:12.000   1944880.3204   4556785.3053   4004207.2855   6  15   0.0579   0.0420   0.0336   0.0361   0.0322   0.0365   0.00    0.0
2020/01/01 01:04:42.000   1944880.3202   4556785.3035   4004207.2863   6  15   0.0574   0.0421   0.0336   0.0358   0.0319   0.0362   0.00    0.0
2020/01/01 01:05:12.000   1944880.3167   4556785.3002   4004207.2855   6  15   0.0568   0.0418   0.0332   0.0354   0.0315   0.0359   0.00    0.0
2020/01/01 01:05:42.000   1944880.3174   4556785.2968   4004207.2872   6  15   0.0564   0.0415   0.0331   0.0350   0.0315   0.0355   0.00    0.0
2020/01/01 01:06:12.000   1944880.3168   4556785.2948   4004207.2887   6  15   0.0559   0.0412   0.0330   0.0346   0.0313   0.0353   0.00    0.0
2020/01/01 01:06:42.000   1944880.3171   4556785.2971   4004207.2859   6  15   0.0553   0.0408   0.0329   0.0343   0.0312   0.0350   0.00    0.0
2020/01/01 01:07:12.000   1944880.3157   4556785.2981   4004207.2812   6  15   0.0547   0.0407   0.0328   0.0340   0.0311   0.0348   0.00    0.0
2020/01/01 01:07:42.000   1944880.3152   4556785.2955   4004207.2812   6  15   0.0543   0.0404   0.0326   0.0336   0.0308   0.0345   0.00    0.0
2020/01/01 01:08:12.000   1944880.3141   4556785.2959   4004207.2813   6  15   0.0537   0.0402   0.0325   0.0332   0.0306   0.0342   0.00    0.0
2020/01/01 01:08:42.000   1944880.3100   4556785.2937   4004207.2786   6  15   0.0533   0.0399   0.0323   0.0328   0.0303   0.0339   0.00    0.0
2020/01/01 01:09:12.000   1944880.3065   4556785.2981   4004207.2799   6  15   0.0529   0.0399   0.0324   0.0325   0.0303   0.0337   0.00    0.0
2020/01/01 01:09:42.000   1944880.3052   4556785.2911   4004207.2784   6  15   0.0523   0.0394   0.0320   0.0322   0.0299   0.0334   0.00    0.0
2020/01/01 01:10:12.000   1944880.3000   4556785.2850   4004207.2735   6  15   0.0517   0.0390   0.0319   0.0318   0.0298   0.0331   0.00    0.0
2020/01/01 01:10:42.000   1944880.3029   4556785.2844   4004207.2813   6  15   0.0513   0.0389   0.0318   0.0316   0.0296   0.0329   0.00    0.0
2020/01/01 01:11:12.000   1944880.3040   4556785.2909   4004207.2842   6  15   0.0508   0.0389   0.0317   0.0312   0.0294   0.0326   0.00    0.0
2020/01/01 01:11:42.000   1944880.3046   4556785.2916   4004207.2847   6  15   0.0504   0.0387   0.0317   0.0308   0.0294   0.0324   0.00    0.0
2020/01/01 01:12:12.000   1944880.3046   4556785.2915   4004207.2853   6  15   0.0500   0.0384   0.0315   0.0307   0.0291   0.0322   0.00    0.0
2020/01/01 01:12:42.000   1944880.3033   4556785.2907   4004207.2841   6  14   0.0497   0.0387   0.0315   0.0310   0.0291   0.0321   0.00    0.0
2020/01/01 01:13:12.000   1944880.3037   4556785.2941   4004207.2842   6  14   0.0493   0.0387   0.0313   0.0305   0.0290   0.0318   0.00    0.0
2020/01/01 01:13:42.000   1944880.3060   4556785.2974   4004207.2868   6  15   0.0487   0.0384   0.0312   0.0304   0.0289   0.0315   0.00    0.0
2020/01/01 01:14:12.000   1944880.3042   4556785.2959   4004207.2854   6  15   0.0485   0.0380   0.0308   0.0300   0.0284   0.0314   0.00    0.0
2020/01/01 01:14:42.000   1944880.3022   4556785.2914   4004207.2834   6  15   0.0479   0.0377   0.0305   0.0296   0.0282   0.0309   0.00    0.0
2020/01/01 01:15:12.000   1944880.3019   4556785.2957   4004207.2834   6  15   0.0474   0.0375   0.0300   0.0293   0.0278   0.0307   0.00    0.0
2020/01/01 01:15:42.000   1944880.2968   4556785.2847   4004207.2783   6  14   0.0471   0.0378   0.0300   0.0292   0.0278   0.0305   0.00    0.0
2020/01/01 01:16:12.000   1944880.2966   4556785.2887   4004207.2751   6  14   0.0468   0.0378   0.0302   0.0290   0.0278   0.0304   0.00    0.0
2020/01/01 01:16:42.000   1944880.2939   4556785.2885   4004207.2777   6  14   0.0464   0.0376   0.0300   0.0289   0.0276   0.0300   0.00    0.0
2020/01/01 01:17:12.000   1944880.2918   4556785.2916   4004207.2764   6  14   0.0459   0.0373   0.0297   0.0286   0.0274   0.0299   0.00    0.0
2020/01/01 01:17:42.000   1944880.2909   4556785.2869   4004207.2790   6  14   0.0456   0.0375   0.0301   0.0284   0.0276   0.0297   0.00    0.0
2020/01/01 01:18:12.000   1944880.2880   4556785.2879   4004207.2761   6  14   0.0452   0.0372   0.0299   0.0282   0.0273   0.0297   0.00    0.0
2020/01/01 01:18:42.000   1944880.2889   4556785.2869   4004207.2813   6  14   0.0449   0.0373   0.0300   0.0282   0.0275   0.0298   0.00    0.0
2020/01/01 01:19:12.000   1944880.2867   4556785.2887   4004207.2828   6  14   0.0444   0.0370   0.0297   0.0278   0.0271   0.0292   0.00    0.0
2020/01/01 01:19:42.000   1944880.2869   4556785.2860   4004207.2756   6  14   0.0442   0.0369   0.0299   0.0276   0.0273   0.0292   0.00    0.0
2020/01/01 01:20:12.000   1944880.2884   4556785.2868   4004207.2793   6  14   0.0439   0.0368   0.0299   0.0276   0.0272   0.0292   0.00    0.0
2020/01/01 01:20:42.000   1944880.2870   4556785.2855   4004207.2792   6  14   0.0434   0.0368   0.0297   0.0271   0.0271   0.0288   0.00    0.0
2020/01/01 01:21:12.000   1944880.2854   4556785.2873   4004207.2735   6  14   0.0430   0.0367   0.0299   0.0272   0.0271   0.0288   0.00    0.0
2020/01/01 01:21:42.000   1944880.2843   4556785.2869   4004207.2751   6  14   0.0427   0.0366   0.0298   0.0270   0.0271   0.0286   0.00    0.0
2020/01/01 01:22:12.000   1944880.2800   4556785.2839   4004207.2748   6  14   0.0424   0.0365   0.0297   0.0267   0.0270   0.0285   0.00    0.0
2020/01/01 01:22:42.000   1944880.2838   4556785.2903   4004207.2805   6  14   0.0421   0.0366   0.0298   0.0266   0.0269   0.0284   0.00    0.0
2020/01/01 01:23:12.000   1944880.2810   4556785.2899   4004207.2727   6  14   0.0417   0.0363   0.0298   0.0263   0.0269   0.0281   0.00    0.0
2020/01/01 01:23:42.000   1944880.2778   4556785.2887   4004207.2761   6  14   0.0414   0.0361   0.0296   0.0263   0.0267   0.0282   0.00    0.0
2020/01/01 01:24:12.000   1944880.2811   4556785.2940   4004207.2789   6  14   0.0412   0.0363   0.0299   0.0261   0.0271   0.0281   0.00    0.0
2020/01/01 01:24:42.000   1944880.2771   4556785.2914   4004207.2758   6  14   0.0410   0.0361   0.0298   0.0259   0.0268   0.0279   0.00    0.0
2020/01/01 01:25:12.000   1944880.2760   4556785.2890   4004207.2728   6  14   0.0404   0.0362   0.0298   0.0258   0.0269   0.0279   0.00    0.0
2020/01/01 01:25:42.000   1944880.2755   4556785.2862   4004207.2770   6  14   0.0401   0.0360   0.0298   0.0256   0.0268   0.0277   0.00    0.0
2020/01/01 01:26:12.000   1944880.2719   4556785.2875   4004207.2696   6  14   0.0398   0.0360   0.0297   0.0255   0.0268   0.0276   0.00    0.0
2020/01/01 01:26:42.000   1944880.2747   4556785.2915   4004207.2792   6  14   0.0396   0.0359   0.0298   0.0254   0.0267   0.0275   0.00    0.0
2020/01/01 01:27:12.000   1944880.2748   4556785.2914   4004207.2782   6  14   0.0393   0.0357   0.0297   0.0250   0.0266   0.0274   0.00    0.0
2020/01/01 01:27:42.000   1944880.2771   4556785.2945   4004207.2854   6  13   0.0390   0.0357   0.0301   0.0249   0.0265   0.0273   0.00    0.0
2020/01/01 01:28:12.000   1944880.2735   4556785.2913   4004207.2815   6  12   0.0386   0.0365   0.0304   0.0249   0.0272   0.0272   0.00    0.0
2020/01/01 01:28:42.000   1944880.2743   4556785.2900   4004207.2781   6  13   0.0385   0.0363   0.0306   0.0248   0.0271   0.0272   0.00    0.0
2020/01/01 01:29:12.000   1944880.2721   4556785.2917   4004207.2807   6  14   0.0381   0.0354   0.0303   0.0240   0.0268   0.0268   0.00    0.0
2020/01/01 01:29:42.000   1944880.2712   4556785.2946   4004207.2757   6  14   0.0378   0.0343   0.0302   0.0239   0.0262   0.0267   0.00    0.0
2020/01/01 01:30:12.000   1944880.2712   4556785.2926   4004207.2757   6  14   0.0375   0.0339   0.0301   0.0236   0.0261   0.0265   0.00    0.0
2020/01/01 01:30:42.000   1944880.2695   4556785.2901   4004207.2707   6  14   0.0372   0.0337   0.0300   0.0234   0.0260   0.0262   0.00    0.0
2020/01/01 01:31:12.000   1944880.2682   4556785.2900   4004207.2715   6  14   0.0369   0.0335   0.0300   0.0234   0.0260   0.0264   0.00    0.0
2020/01/01 01:31:42.000   1944880.2680   4556785.2907   4004207.2725   6  14   0.0366   0.0334   0.0299   0.0229   0.0259   0.0261   0.00    0.0
2020/01/01 01:32:12.000   1944880.2689   4556785.2962   4004207.2780   6  14   0.0364   0.0329   0.0299   0.0228   0.0256   0.0260   0.00    0.0
2020/01/01 01:32:42.000   1944880.2644   4556785.2939   4004207.2757   6  14   0.0362   0.0330   0.0297   0.0227   0.0257   0.0260   0.00    0.0
2020/01/01 01:33:12.000   1944880.2661   4556785.2928   4004207.2786   6  14   0.0359   0.0329   0.0299   0.0223   0.0255   0.0258   0.00    0.0
2020/01/01 01:33:42.000   1944880.2703   4556785.2985   4004207.2825   6  14   0.0356   0.0324   0.0299   0.0224   0.0253   0.0258   0.00    0.0
2020/01/01 01:34:12.000   1944880.2673   4556785.2997   4004207.2817   6  14   0.0355   0.0323   0.0299   0.0222   0.0255   0.0258   0.00    0.0
2020/01/01 01:34:42.000   1944880.2695   4556785.3031   4004207.2845   6  14   0.0351   0.0322   0.0294   0.0219   0.0252   0.0254   0.00    0.0
2020/01/01 01:35:12.000   1944880.2703   4556785.3024   4004207.2827   6  14   0.0349   0.0321   0.0299   0.0221   0.0253   0.0254   0.00    0.0
2020/01/01 01:35:42.000   1944880.2642   4556785.2982   4004207.2778   6  14   0.0346   0.0319   0.0297   0.0216   0.0252   0.0251   0.00    0.0
2020/01/01 01:36:12.000   1944880.2653   4556785.2982   4004207.2769   6  14   0.0344   0.0318   0.0294   0.0217   0.0248   0.0250   0.00    0.0
2020/01/01 01:36:42.000   1944880.2646   4556785.2985   4004207.2767   6  14   0.0342   0.0315   0.0295   0.0213   0.0251   0.0249   0.00    0.0
2020/01/01 01:37:12.000   1944880.2679   4556785.3016   4004207.2801   6  14   0.0340   0.0314   0.0292   0.0213   0.0247   0.0248   0.00    0.0
2020/01/01 01:37:42.000   1944880.2643   4556785.2972   4004207.2758   6  14   0.0338   0.0316   0.0295   0.0213   0.0250   0.0247   0.00    0.0
2020/01/01 01:38:12.000   1944880.2614   4556785.2926   4004207.2683   6  14   0.0335   0.0317   0.0294   0.0214   0.0251   0.0247   0.00    0.0
2020/01/01 01:38:42.000   1944880.2644   4556785.2973   4004207.2786   6  14   0.0332   0.0317   0.0294   0.0213   0.0249   0.0248   0.00    0.0
2020/01/01 01:39:12.000   1944880.2631   4556785.2974   4004207.2759   6  14   0.0331   0.0314   0.0292   0.0207   0.0246   0.0242   0.00    0.0
2020/01/01 01:39:42.000   1944880.2608   4556785.2967   4004207.2752   6  14   0.0329   0.0311   0.0293   0.0205   0.0247   0.0243   0.00    0.0
2020/01/01 01:40:12.000   1944880.2617   4556785.2936   4004207.2747   6  14   0.0327   0.0309   0.0293   0.0203   0.0248   0.0240   0.00    0.0
2020/01/01 01:40:42.000   1944880.2616   4556785.2918   4004207.2717   6  14   0.0326   0.0313   0.0295   0.0206   0.0251   0.0243   0.00    0.0
2020/01/01 01:41:12.000   1944880.2597   4556785.2928   4004207.2718   6  14   0.0322   0.0309   0.0292   0.0201   0.0247   0.0238   0.00    0.0
2020/01/01 01:41:42.000   1944880.2559   4556785.2878   4004207.2667   6  14   0.0321   0.0309   0.0290   0.0203   0.0245   0.0239   0.00    0.0
2020/01/01 01:42:12.000   1944880.2555   4556785.2891   4004207.2669   6  14   0.0319   0.0304   0.0291   0.0200   0.0245   0.0239   0.00    0.0
2020/01/01 01:42:42.000   1944880.2570   4556785.2918   4004207.2675   6  14   0.0317   0.0306   0.0291   0.0198   0.0245   0.0236   0.00    0.0
2020/01/01 01:43:12.000   1944880.2525   4556785.2925   4004207.2710   6  15   0.0315   0.0304   0.0287   0.0197   0.0241   0.0235   0.00    0.0
2020/01/01 01:43:42.000   1944880.2530   4556785.2917   4004207.2670   6  15   0.0313   0.0302   0.0288   0.0197   0.0241   0.0236   0.00    0.0
2020/01/01 01:44:12.000   1944880.2520   4556785.2966   4004207.2725   6  15   0.0311   0.0299   0.0289   0.0196   0.0243   0.0233   0.00    0.0
2020/01/01 01:44:42.000   1944880.2570   4556785.2924   4004207.2757   6  15   0.0310   0.0300   0.0289   0.0193   0.0241   0.0235   0.00    0.0
2020/01/01 01:45:12.000   1944880.2527   4556785.2904   4004207.2721   6  15   0.0307   0.0296   0.0287   0.0193   0.0237   0.0232   0.00    0.0
2020/01/01 01:45:42.000   1944880.2544   4556785.2938   4004207.2761   6  15   0.0306   0.0293   0.0289   0.0190   0.0238   0.0233   0.00    0.0
2020/01/01 01:46:12.000   1944880.2545   4556785.2975   4004207.2727   6  15   0.0303   0.0294   0.0288   0.0190   0.0240   0.0231   0.00    0.0
2020/01/01 01:46:42.000   1944880.2565   4556785.2990   4004207.2729   6  15   0.0302   0.0295   0.0286   0.0191   0.0238   0.0229   0.00    0.0
2020/01/01 01:47:12.000   1944880.2568   4556785.2993   4004207.2714   6  15   0.0301   0.0294   0.0287   0.0193   0.0239   0.0228   0.00    0.0
2020/01/01 01:47:42.000   1944880.2547   4556785.2957   4004207.2717   6  15   0.0299   0.0295   0.0288   0.0190   0.0239   0.0229   0.00    0.0
2020/01/01 01:48:12.000   1944880.2544   4556785.2944   4004207.2720   6  15   0.0299   0.0291   0.0287   0.0188   0.0235   0.0226   0.00    0.0
2020/01/01 01:48:42.000   1944880.2557   4556785.2941   4004207.2727   6  15   0.0295   0.0291   0.0287   0.0187   0.0237   0.0227   0.00    0.0
2020/01/01 01:49:12.000   1944880.2532   4556785.2936   4004207.2695   6  15   0.0293   0.0292   0.0286   0.0184   0.0236   0.0227   0.00    0.0
2020/01/01 01:49:42.000   1944880.2522   4556785.2930   4004207.2700   6  15   0.0290   0.0289   0.0286   0.0183   0.0237   0.0224   0.00    0.0
2020/01/01 01:50:12.000   1944880.2510   4556785.2897   4004207.2657   6  15   0.0292   0.0288   0.0285   0.0186   0.0236   0.0226   0.00    0.0
2020/01/01 01:50:42.000   1944880.2512   4556785.2908   4004207.2663   6  15   0.0289   0.0288   0.0286   0.0181   0.0235   0.0225   0.00    0.0
2020/01/01 01:51:12.000   1944880.2546   4556785.2951   4004207.2688   6  15   0.0285   0.0287   0.0286   0.0182   0.0236   0.0223   0.00    0.0
2020/01/01 01:51:42.000   1944880.2474   4556785.2895   4004207.2644   6  15   0.0286   0.0287   0.0286   0.0183   0.0235   0.0220   0.00    0.0
2020/01/01 01:52:12.000   1944880.2502   4556785.2950   4004207.2682   6  15   0.0284   0.0288   0.0286   0.0180   0.0234   0.0220   0.00    0.0
2020/01/01 01:52:42.000   1944880.2460   4556785.2936   4004207.2707   6  15   0.0283   0.0288   0.0284   0.0180   0.0232   0.0222   0.00    0.0
2020/01/01 01:53:12.000   1944880.2493   4556785.2956   4004207.2725   6  15   0.0282   0.0285   0.0286   0.0182   0.0233   0.0221   0.00    0.0
2020/01/01 01:53:42.000   1944880.2505   4556785.2968   4004207.2723   6  15   0.0279   0.0286   0.0283   0.0181   0.0232   0.0219   0.00    0.0
2020/01/01 01:54:12.000   1944880.2515   4556785.2949   4004207.2690   6  15   0.0278   0.0283   0.0284   0.0178   0.0232   0.0219   0.00    0.0
2020/01/01 01:54:42.000   1944880.2463   4556785.2930   4004207.2631   6  15   0.0276   0.0284   0.0284   0.0177   0.0231   0.0217   0.00    0.0
2020/01/01 01:55:12.000   1944880.2488   4556785.2945   4004207.2611   6  15   0.0277   0.0283   0.0286   0.0178   0.0233   0.0218   0.00    0.0
2020/01/01 01:55:42.000   1944880.2506   4556785.2927   4004207.2641   6  15   0.0274   0.0283   0.0284   0.0175   0.0231   0.0218   0.00    0.0
2020/01/01 01:56:12.000   1944880.2494   4556785.2942   4004207.2630   6  16   0.0272   0.0281   0.0281   0.0178   0.0229   0.0215   0.00    0.0
2020/01/01 01:56:42.000   1944880.2452   4556785.2923   4004207.2671   6  16   0.0271   0.0282   0.0277   0.0174   0.0228   0.0211   0.00    0.0
2020/01/01 01:57:12.000   1944880.2524   4556785.2963   4004207.2699   6  16   0.0270   0.0279   0.0278   0.0175   0.0227   0.0213   0.00    0.0
2020/01/01 01:57:42.000   1944880.2499   4556785.2928   4004207.2649   6  16   0.0268   0.0281   0.0276   0.0174   0.0231   0.0213   0.00    0.0
2020/01/01 01:58:12.000   1944880.2544   4556785.2990   4004207.2686   6  16   0.0267   0.0279   0.0275   0.0173   0.0228   0.0212   0.00    0.0
2020/01/01 01:58:42.000   1944880.2577   4556785.3031   4004207.2727   6  16   0.0264   0.0280   0.0274   0.0170   0.0226   0.0212   0.00    0.0
2020/01/01 01:59:12.000   1944880.2571   4556785.2998   4004207.2697   6  16   0.0265   0.0279   0.0273   0.0172   0.0228   0.0209   0.00    0.0
2020/01/01 01:59:42.000   1944880.2531   4556785.2990   4004207.2694   6  16   0.0263   0.0278   0.0273   0.0168   0.0225   0.0208   0.00    0.0
2020/01/01 02:00:12.000   1944880.2550   4556785.2946   4004207.2697   6  16   0.0259   0.0276   0.0271   0.0167   0.0224   0.0207   0.00    0.0
2020/01/01 02:00:42.000   1944880.2552   4556785.2965   4004207.2709   6  16   0.0261   0.0276   0.0269   0.0170   0.0222   0.0206   0.00    0.0
2020/01/01 02:01:12.000   1944880.2475   4556785.2928   4004207.2661   6  16   0.0257   0.0277   0.0271   0.0167   0.0223   0.0206   0.00    0.0
2020/01/01 02:01:42.000   1944880.2492   4556785.2931   4004207.2641   6  16   0.0258   0.0276   0.0272   0.0168   0.0224   0.0206   0.00    0.0
2020/01/01 02:02:12.000   1944880.2483   4556785.2931   4004207.2635   6  16   0.0256   0.0277   0.0270   0.0164   0.0221   0.0204   0.00    0.0
2020/01/01 02:02:42.000   1944880.2486   4556785.2905   4004207.2623   6  16   0.0254   0.0276   0.0271   0.0168   0.0221   0.0204   0.00    0.0
2020/01/01 02:03:12.000   1944880.2462   4556785.2886   4004207.2568   6  16   0.0253   0.0274   0.0269   0.0163   0.0219   0.0203   0.00    0.0
2020/01/01 02:03:42.000   1944880.2436   4556785.2857   4004207.2571   6  16   0.0253   0.0275   0.0266   0.0166   0.0220   0.0202   0.00    0.0
2020/01/01 02:04:12.000   1944880.2459   4556785.2906   4004207.2574   6  16   0.0251   0.0274   0.0268   0.0167   0.0223   0.0200   0.00    0.0
2020/01/01 02:04:42.000   1944880.2481   4556785.2904   4004207.2590   6  16   0.0249   0.0271   0.0267   0.0162   0.0218   0.0200   0.00    0.0
2020/01/01 02:05:12.000   1944880.2487   4556785.2928   4004207.2593   6  16   0.0248   0.0275   0.0267   0.0160   0.0221   0.0199   0.00    0.0
2020/01/01 02:05:42.000   1944880.2466   4556785.2900   4004207.2610   6  16   0.0249   0.0275   0.0268   0.0163   0.0221   0.0199   0.00    0.0
2020/01/01 02:06:12.000   1944880.2449   4556785.2861   4004207.2599   6  16   0.0248   0.0276   0.0268   0.0166   0.0221   0.0201   0.00    0.0
2020/01/01 02:06:42.000   1944880.2461   4556785.2906   4004207.2607   6  16   0.0247   0.0275   0.0266   0.0165   0.0219   0.0201   0.00    0.0
2020/01/01 02:07:12.000   1944880.2455   4556785.2875   4004207.2607   6  16   0.0244   0.0272   0.0261   0.0163   0.0215   0.0197   0.00    0.0
2020/01/01 02:07:42.000   1944880.2461   4556785.2890   4004207.2632   6  16   0.0243   0.0272   0.0263   0.0160   0.0217   0.0198   0.00    0.0
2020/01/01 02:08:12.000   1944880.2472   4556785.2903   4004207.2603   6  16   0.0242   0.0272   0.0265   0.0162   0.0219   0.0198   0.00    0.0
2020/01/01 02:08:42.000   1944880.2486   4556785.2942   4004207.2633   6  16   0.0240   0.0267   0.0263   0.0159   0.0216   0.0194   0.00    0.0
2020/01/01 02:09:12.000   1944880.2518   4556785.2999   4004207.2656   6  16   0.0240   0.0272   0.0264   0.0158   0.0217   0.0195   0.00    0.0
2020/01/01 02:09:42.000   1944880.2497   4556785.2964   4004207.2620   6  16   0.0239   0.0270   0.0260   0.0160   0.0213   0.0193   0.00    0.0
2020/01/01 02:10:12.000   1944880.2501   4556785.2960   4004207.2610   6  16   0.0238   0.0275   0.0264   0.0158   0.0219   0.0194   0.00    0.0
2020/01/01 02:10:42.000   1944880.2459   4556785.2927   4004207.2571   6  16   0.0237   0.0268   0.0259   0.0158   0.0214   0.0193   0.00    0.0
2020/01/01 02:11:12.000   1944880.2471   4556785.2944   4004207.2611   6  16   0.0238   0.0271   0.0262   0.0161   0.0217   0.0192   0.00    0.0
2020/01/01 02:11:42.000   1944880.2491   4556785.2969   4004207.2619   6  16   0.0232   0.0271   0.0259   0.0155   0.0214   0.0188   0.00    0.0
2020/01/01 02:12:12.000   1944880.2464   4556785.2930   4004207.2586   6  16   0.0234   0.0270   0.0258   0.0156   0.0215   0.0190   0.00    0.0
2020/01/01 02:12:42.000   1944880.2450   4556785.2883   4004207.2562   6  16   0.0232   0.0267   0.0258   0.0156   0.0215   0.0192   0.00    0.0
2020/01/01 02:13:12.000   1944880.2463   4556785.2901   4004207.2594   6  16   0.0233   0.0269   0.0259   0.0157   0.0213   0.0191   0.00    0.0
2020/01/01 02:13:42.000   1944880.2459   4556785.2911   4004207.2592   6  16   0.0232   0.0268   0.0258   0.0159   0.0215   0.0190   0.00    0.0
2020/01/01 02:14:12.000   1944880.2504   4556785.2963   4004207.2612   6  16   0.0231   0.0270   0.0259   0.0154   0.0214   0.0188   0.00    0.0
2020/01/01 02:14:42.000   1944880.2507   4556785.2940   4004207.2615   6  16   0.0230   0.0269   0.0257   0.0158   0.0213   0.0191   0.00    0.0
2020/01/01 02:15:12.000   1944880.2480   4556785.2934   4004207.2614   6  16   0.0228   0.0270   0.0256   0.0156   0.0213   0.0189   0.00    0.0
2020/01/01 02:15:42.000   1944880.2478   4556785.2907   4004207.2600   6  16   0.0225   0.0271   0.0254   0.0153   0.0212   0.0187   0.00    0.0
2020/01/01 02:16:12.000   1944880.2471   4556785.2914   4004207.2606   6  16   0.0224   0.0267   0.0255   0.0154   0.0212   0.0184   0.00    0.0
2020/01/01 02:16:42.000   1944880.2478   4556785.2905   4004207.2600   6  16   0.0225   0.0267   0.0257   0.0154   0.0213   0.0186   0.00    0.0
2020/01/01 02:17:12.000   1944880.2482   4556785.2941   4004207.2582   6  16   0.0225   0.0269   0.0256   0.0156   0.0213   0.0185   0.00    0.0
2020/01/01 02:17:42.000   1944880.2496   4556785.2912   4004207.2598   6  16   0.0222   0.0268   0.0255   0.0153   0.0210   0.0184   0.00    0.0
2020/01/01 02:18:12.000   1944880.2486   4556785.2937   4004207.2580   6  16   0.0220   0.0269   0.0255   0.0154   0.0213   0.0184   0.00    0.0
2020/01/01 02:18:42.000   1944880.2472   4556785.2891   4004207.2587   6  16   0.0222   0.0268   0.0253   0.0149   0.0210   0.0184   0.00    0.0
2020/01/01 02:19:12.000   1944880.2457   4556785.2872   4004207.2561   6  16   0.0219   0.0268   0.0254   0.0153   0.0211   0.0181   0.00    0.0
2020/01/01 02:19:42.000   1944880.2466   4556785.2908   4004207.2581   6  16   0.0219   0.0265   0.0252   0.0150   0.0208   0.0180   0.00    0.0
2020/01/01 02:20:12.000   1944880.2491   4556785.2971   4004207.2593   6  16   0.0219   0.0266   0.0249   0.0150   0.0209   0.0180   0.00    0.0
2020/01/01 02:20:42.000   1944880.2503   4556785.2972   4004207.2592   6  16   0.0216   0.0266   0.0251   0.0149   0.0210   0.0178   0.00    0.0
2020/01/01 02:21:12.000   1944880.2481   4556785.2943   4004207.2592   6  16   0.0215   0.0267   0.0248   0.0150   0.0209   0.0178   0.00    0.0
2020/01/01 02:21:42.000   1944880.2488   4556785.2968   4004207.2594   6  16   0.0214   0.0267   0.0246   0.0151   0.0208   0.0174   0.00    0.0
2020/01/01 02:22:12.000   1944880.2477   4556785.2952   4004207.2562   6  16   0.0213   0.0266   0.0249   0.0150   0.0207   0.0178   0.00    0.0
2020/01/01 02:22:42.000   1944880.2472   4556785.2934   4004207.2546   6  15   0.0216   0.0273   0.0250   0.0156   0.0211   0.0180   0.00    0.0
2020/01/01 02:23:12.000   1944880.2462   4556785.2922   4004207.2529   6  15   0.0218   0.0273   0.0252   0.0153   0.0213   0.0181   0.00    0.0
2020/01/01 02:23:42.000   1944880.2463   4556785.2968   4004207.2527   6  15   0.0218   0.0271   0.0245   0.0160   0.0210   0.0179   0.00    0.0
2020/01/01 02:24:12.000   1944880.2486   4556785.2961   4004207.2587   6  15   0.0216   0.0271   0.0251   0.0157   0.0213   0.0180   0.00    0.0
2020/01/01 02:24:42.000   1944880.2473   4556785.2951   4004207.2564   6  15   0.0218   0.0271   0.0250   0.0156   0.0211   0.0178   0.00    0.0
2020/01/01 02:25:12.000   1944880.2468   4556785.2970   4004207.2588   6  15   0.0214   0.0268   0.0250   0.0155   0.0209   0.0180   0.00    0.0
2020/01/01 02:25:42.000   1944880.2449   4556785.2953   4004207.2579   6  15   0.0212   0.0271   0.0249   0.0153   0.0211   0.0182   0.00    0.0
2020/01/01 02:26:12.000   1944880.2468   4556785.2938   4004207.2573   6  15   0.0215   0.0269   0.0250   0.0151   0.0207   0.0175   0.00    0.0
2020/01/01 02:26:42.000   1944880.2435   4556785.2896   4004207.2503   6  15   0.0209   0.0268   0.0244   0.0152   0.0210   0.0175   0.00    0.0
2020/01/01 02:27:12.000   1944880.2417   4556785.2847   4004207.2476   6  15   0.0209   0.0270   0.0248   0.0151   0.0209   0.0174   0.00    0.0
2020/01/01 02:27:42.000   1944880.2383   4556785.2807   4004207.2466   6  15   0.0211   0.0270   0.0247   0.0148   0.0209   0.0176   0.00    0.0
2020/01/01 02:28:12.000   1944880.2397   4556785.2848   4004207.2469   6  15   0.0208   0.0267   0.0245   0.0146   0.0208   0.0170   0.00    0.0
2020/01/01 02:28:42.000   1944880.2417   4556785.2887   4004207.2480   6  15   0.0207   0.0269   0.0246   0.0153   0.0208   0.0176   0.00    0.0
2020/01/01 02:29:12.000   1944880.2430   4556785.2906   4004207.2525   6  15   0.0206   0.0270   0.0245   0.0153   0.0206   0.0176   0.00    0.0
2020/01/01 02:29:42.000   1944880.2423   4556785.2901   4004207.2504   6  15   0.0204   0.0270   0.0243   0.0147   0.0210   0.0172   0.00    0.0
2020/01/01 02:30:12.000   1944880.2430   4556785.2898   4004207.2529   6  15   0.0203   0.0269   0.0243   0.0149   0.0204   0.0170   0.00    0.0
2020/01/01 02:30:42.000   1944880.2418   4556785.2918   4004207.2513   6  15   0.0204   0.0272   0.0245   0.0153   0.0205   0.0170   0.00    0.0
2020/01/01 02:31:12.000   1944880.2445   4556785.2940   4004207.2544   6  15   0.0196   0.0275   0.0245   0.0144   0.0210   0.0172   0.00    0.0
2020/01/01 02:31:42.000   1944880.2411   4556785.2908   4004207.2549   6  15   0.0203   0.0271   0.0243   0.0151   0.0204   0.0169   0.00    0.0
2020/01/01 02:32:12.000   1944880.2427   4556785.2912   4004207.2560   6  15   0.0203   0.0271   0.0244   0.0147   0.0208   0.0168   0.00    0.0
2020/01/01 02:32:42.000   1944880.2424   4556785.2905   4004207.2531   6  15   0.0200   0.0271   0.0243   0.0144   0.0209   0.0168   0.00    0.0
2020/01/01 02:33:12.000   1944880.2435   4556785.2907   4004207.2528   6  15   0.0198   0.0272   0.0241   0.0144   0.0206   0.0164   0.00    0.0
2020/01/01 02:33:42.000   1944880.2450   4556785.2903   4004207.2548   6  15   0.0197   0.0270   0.0241   0.0145   0.0201   0.0172   0.00    0.0
2020/01/01 02:34:12.000   1944880.2493   4556785.2921   4004207.2558   6  15   0.0197   0.0270   0.0242   0.0148   0.0206   0.0171   0.00    0.0
2020/01/01 02:34:42.000   1944880.2439   4556785.2900   4004207.2519   6  15   0.0199   0.0271   0.0241   0.0145   0.0207   0.0166   0.00    0.0
2020/01/01 02:35:12.000   1944880.2446   4556785.2902   4004207.2514   6  15   0.0198   0.0270   0.0240   0.0144   0.0205   0.0165   0.00    0.0
2020/01/01 02:35:42.000   1944880.2437   4556785.2843   4004207.2502   6  15   0.0195   0.0272   0.0243   0.0148   0.0205   0.0166   0.00    0.0
2020/01/01 02:36:12.000   1944880.2452   4556785.2920   4004207.2541   6  15   0.0196   0.0270   0.0245   0.0144   0.0206   0.0167   0.00    0.0
2020/01/01 02:36:42.000   1944880.2403   4556785.2895   4004207.2561   6  15   0.0195   0.0269   0.0243   0.0149   0.0204   0.0167   0.00    0.0
2020/01/01 02:37:12.000   1944880.2416   4556785.2846   4004207.2534   6  15   0.0196   0.0271   0.0241   0.0150   0.0206   0.0167   0.00    0.0
2020/01/01 02:37:42.000   1944880.2430   4556785.2847   4004207.2542   6  15   0.0195   0.0270   0.0241   0.0140   0.0206   0.0163   0.00    0.0
2020/01/01 02:38:12.000   1944880.2447   4556785.2861   4004207.2533   6  15   0.0192   0.0270   0.0241   0.0146   0.0208   0.0163   0.00    0.0
2020/01/01 02:38:42.000   1944880.2432   4556785.2874   4004207.2549   6  15   0.0192   0.0269   0.0242   0.0143   0.0207   0.0165   0.00    0.0
2020/01/01 02:39:12.000   1944880.2443   4556785.2868   4004207.2543   6  15   0.0190   0.0273   0.0242   0.0144   0.0207   0.0164   0.00    0.0
2020/01/01 02:39:42.000   1944880.2436   4556785.2876   4004207.2573   6  15   0.0190   0.0272   0.0236   0.0142   0.0204   0.0162   0.00    0.0
2020/01/01 02:40:12.000   1944880.2439   4556785.2851   4004207.2562   6  15   0.0189   0.0270   0.0238   0.0145   0.0204   0.0163   0.00    0.0
2020/01/01 02:40:42.000   1944880.2452   4556785.2887   4004207.2537   6  15   0.0189   0.0271   0.0239   0.0142   0.0207   0.0163   0.00    0.0
2020/01/01 02:41:12.000   1944880.2453   4556785.2873   4004207.2504   6  15   0.0192   0.0273   0.0238   0.0143   0.0207   0.0163   0.00    0.0
2020/01/01 02:41:42.000   1944880.2459   4556785.2874   4004207.2532   6  15   0.0190   0.0273   0.0236   0.0142   0.0206   0.0163   0.00    0.0
2020/01/01 02:42:12.000   1944880.2461   4556785.2867   4004207.2531   6  15   0.0188   0.0275   0.0239   0.0146   0.0204   0.0161   0.00    0.0
2020/01/01 02:42:42.000   1944880.2478   4556785.2911   4004207.2514   6  15   0.0184   0.0270   0.0237   0.0144   0.0199   0.0159   0.00    0.0
2020/01/01 02:43:12.000   1944880.2441   4556785.2898   4004207.2530   6  15   0.0185   0.0274   0.0239   0.0143   0.0205   0.0159   0.00    0.0
2020/01/01 02:43:42.000   1944880.2428   4556785.2896   4004207.2535   6  15   0.0183   0.0271   0.0235   0.0137   0.0206   0.0156   0.00    0.0
2020/01/01 02:44:12.000   1944880.2440   4556785.2891   4004207.2548   6  15   0.0186   0.0272   0.0237   0.0139   0.0204   0.0155   0.00    0.0
2020/01/01 02:44:42.000   1944880.2434   4556785.2904   4004207.2562   6  15   0.0185   0.0270   0.0235   0.0138   0.0205   0.0159   0.00    0.0
2020/01/01 02:45:12.000   1944880.2448   4556785.2885   4004207.2506   6  15   0.0185   0.0274   0.0237   0.0140   0.0204   0.0156   0.00    0.0
2020/01/01 02:45:42.000   1944880.2429   4556785.2871   4004207.2529   6  15   0.0182   0.0273   0.0235   0.0142   0.0205   0.0157   0.00    0.0
2020/01/01 02:46:12.000   1944880.2442   4556785.2868   4004207.2518   6  15   0.0181   0.0274   0.0233   0.0142   0.0201   0.0155   0.00    0.0
2020/01/01 02:46:42.000   1944880.2453   4556785.2843   4004207.2471   6  15   0.0181   0.0273   0.0236   0.0141   0.0204   0.0158   0.00    0.0
2020/01/01 02:47:12.000   1944880.2439   4556785.2827   4004207.2480   6  15   0.0180   0.0272   0.0234   0.0142   0.0205   0.0156   0.00    0.0
2020/01/01 02:47:42.000   1944880.2426   4556785.2876   4004207.2510   6  15   0.0179   0.0273   0.0232   0.0140   0.0203   0.0156   0.00    0.0
2020/01/01 02:48:12.000   1944880.2416   4556785.2867   4004207.2496   6  15   0.0183   0.0272   0.0235   0.0139   0.0205   0.0159   0.00    0.0
2020/01/01 02:48:42.000   1944880.2437   4556785.2851   4004207.2503   6  15   0.0180   0.0272   0.0234   0.0140   0.0202   0.0154   0.00    0.0
2020/01/01 02:49:12.000   1944880.2425   4556785.2854   4004207.2510   6  15   0.0177   0.0273   0.0232   0.0137   0.0201   0.0151   0.00    0.0
2020/01/01 02:49:42.000   1944880.2430   4556785.2844   4004207.2543   6  15   0.0181   0.0276   0.0237   0.0141   0.0204   0.0155   0.00    0.0
2020/01/01 02:50:12.000   1944880.2406   4556785.2830   4004207.2513   6  15   0.0178   0.0271   0.0229   0.0136   0.0199   0.0151   0.00    0.0
2020/01/01 02:50:42.000   1944880.2408   4556785.2819   4004207.2527   6  16   0.0180   0.0273   0.0231   0.0140   0.0201   0.0156   0.00    0.0
2020/01/01 02:51:12.000   1944880.2426   4556785.2820   4004207.2528   6  16   0.0174   0.0269   0.0229   0.0135   0.0197   0.0150   0.00    0.0
2020/01/01 02:51:42.000   1944880.2419   4556785.2838   4004207.2523   6  16   0.0177   0.0265   0.0231   0.0132   0.0196   0.0150   0.00    0.0
2020/01/01 02:52:12.000   1944880.2417   4556785.2805   4004207.2501   6  16   0.0178   0.0268   0.0229   0.0136   0.0196   0.0154   0.00    0.0
2020/01/01 02:52:42.000   1944880.2390   4556785.2724   4004207.2474   6  16   0.0177   0.0268   0.0229   0.0136   0.0198   0.0144   0.00    0.0
2020/01/01 02:53:12.000   1944880.2417   4556785.2807   4004207.2508   6  16   0.0178   0.0267   0.0232   0.0138   0.0195   0.0154   0.00    0.0
2020/01/01 02:53:42.000   1944880.2438   4556785.2772   4004207.2493   6  16   0.0175   0.0265   0.0230   0.0135   0.0198   0.0147   0.00    0.0
2020/01/01 02:54:12.000   1944880.2409   4556785.2771   4004207.2492   6  16   0.0174   0.0267   0.0233   0.0136   0.0199   0.0150   0.00    0.0
2020/01/01 02:54:42.000   1944880.2405   4556785.2740   4004207.2479   6  16   0.0172   0.0268   0.0228   0.0140   0.0195   0.0151   0.00    0.0
2020/01/01 02:55:12.000   1944880.2459   4556785.2770   4004207.2507   6  16   0.0171   0.0265   0.0227   0.0130   0.0193   0.0148   0.00    0.0
2020/01/01 02:55:42.000   1944880.2413   4556785.2752   4004207.2487   6  16   0.0174   0.0266   0.0231   0.0136   0.0197   0.0152   0.00    0.0
2020/01/01 02:56:12.000   1944880.2425   4556785.2799   4004207.2492   6  16   0.0171   0.0266   0.0231   0.0130   0.0197   0.0146   0.00    0.0
2020/01/01 02:56:42.000   1944880.2447   4556785.2843   4004207.2534   6  16   0.0178   0.0266   0.0229   0.0139   0.0195   0.0154   0.00    0.0
2020/01/01 02:57:12.000   1944880.2422   4556785.2792   4004207.2513   6  16   0.0170   0.0262   0.0229   0.0126   0.0194   0.0147   0.00    0.0
2020/01/01 02:57:42.000   1944880.2453   4556785.2845   4004207.2512   6  16   0.0171   0.0265   0.0227   0.0133   0.0197   0.0150   0.00    0.0
2020/01/01 02:58:12.000   1944880.2428   4556785.2797   4004207.2482   6  16   0.0176   0.0266   0.0230   0.0132   0.0197   0.0149   0.00    0.0
2020/01/01 02:58:42.000   1944880.2419   4556785.2853   4004207.2480   6  16   0.0174   0.0265   0.0226   0.0139   0.0193   0.0148   0.00    0.0
2020/01/01 02:59:12.000   1944880.2478   4556785.2870   4004207.2519   6  16   0.0170   0.0263   0.0228   0.0130   0.0194   0.0145   0.00    0.0
2020/01/01 02:59:42.000   1944880.2439   4556785.2860   4004207.2536   6  16   0.0172   0.0264   0.0228   0.0131   0.0198   0.0150   0.00    0.0
2020/01/01 03:00:12.000   1944880.2454   4556785.2833   4004207.2533   6  16   0.0172   0.0265   0.0228   0.0129   0.0194   0.0147   0.00    0.0
2020/01/01 03:00:42.000   1944880.2469   4556785.2844   4004207.2535   6  16   0.0172   0.0266   0.0224   0.0130   0.0194   0.0144   0.00    0.0
2020/01/01 03:01:12.000   1944880.2434   4556785.2773   4004207.2489   6  16   0.0169   0.0264   0.0226   0.0130   0.0194   0.0147   0.00    0.0
2020/01/01 03:01:42.000   1944880.2418   4556785.2769   4004207.2475   6  16   0.0169   0.0262   0.0224   0.0133   0.0193   0.0150   0.00    0.0
2020/01/01 03:02:12.000   1944880.2398   4556785.2770   4004207.2456   6  16   0.0172   0.0262   0.0223   0.0128   0.0191   0.0144   0.00    0.0
2020/01/01 03:02:42.000   1944880.2446   4556785.2777   4004207.2487   6  16   0.0168   0.0264   0.0225   0.0133   0.0190   0.0148   0.00    0.0
2020/01/01 03:03:12.000   1944880.2452   4556785.2812   4004207.2501   6  16   0.0168   0.0265   0.0224   0.0139   0.0194   0.0145   0.00    0.0
2020/01/01 03:03:42.000   1944880.2399   4556785.2728   4004207.2467   6  16   0.0165   0.0260   0.0223   0.0127   0.0193   0.0144   0.00    0.0
2020/01/01 03:04:12.000   1944880.2432   4556785.2761   4004207.2482   6  16   0.0169   0.0265   0.0225   0.0130   0.0190   0.0143   0.00    0.0
2020/01/01 03:04:42.000   1944880.2407   4556785.2748   4004207.2463   6  16   0.0164   0.0261   0.0221   0.0131   0.0193   0.0145   0.00    0.0
2020/01/01 03:05:12.000   1944880.2452   4556785.2791   4004207.2518   6  16   0.0169   0.0265   0.0226   0.0134   0.0193   0.0147   0.00    0.0
2020/01/01 03:05:42.000   1944880.2435   4556785.2772   4004207.2482   6  16   0.0171   0.0264   0.0224   0.0133   0.0189   0.0147   0.00    0.0
2020/01/01 03:06:12.000   1944880.2397   4556785.2757   4004207.2480   6  16   0.0166   0.0263   0.0225   0.0131   0.0193   0.0146   0.00    0.0
2020/01/01 03:06:42.000   1944880.2419   4556785.2768   4004207.2529   6  16   0.0168   0.0261   0.0222   0.0127   0.0190   0.0139   0.00    0.0
2020/01/01 03:07:12.000   1944880.2451   4556785.2805   4004207.2536   6  16   0.0165   0.0260   0.0221   0.0131   0.0189   0.0138   0.00    0.0
2020/01/01 03:07:42.000   1944880.2456   4556785.2769   4004207.2532   6  16   0.0165   0.0262   0.0223   0.0133   0.0192   0.0145   0.00    0.0
2020/01/01 03:08:12.000   1944880.2431   4556785.2754   4004207.2514   6  16   0.0164   0.0263   0.0223   0.0132   0.0193   0.0142   0.00    0.0
2020/01/01 03:08:42.000   1944880.2439   4556785.2764   4004207.2501   6  16   0.0163   0.0263   0.0224   0.0131   0.0191   0.0142   0.00    0.0
2020/01/01 03:09:12.000   1944880.2451   4556785.2771   4004207.2539   6  16   0.0165   0.0260   0.0223   0.0129   0.0190   0.0145   0.00    0.0
2020/01/01 03:09:42.000   1944880.2492   4556785.2809   4004207.2563   6  16   0.0162   0.0261   0.0221   0.0133   0.0190   0.0140   0.00    0.0
2020/01/01 03:10:12.000   1944880.2473   4556785.2803   4004207.2503   6  16   0.0161   0.0263   0.0222   0.0133   0.0189   0.0141   0.00    0.0
2020/01/01 03:10:42.000   1944880.2458   4556785.2798   4004207.2513   6  16   0.0169   0.0263   0.0221   0.0130   0.0188   0.0143   0.00    0.0
2020/01/01 03:11:12.000   1944880.2456   4556785.2808   4004207.2524   6  16   0.0161   0.0261   0.0221   0.0132   0.0191   0.0140   0.00    0.0
2020/01/01 03:11:42.000   1944880.2476   4556785.2793   4004207.2536   6  16   0.0164   0.0262   0.0222   0.0129   0.0190   0.0141   0.00    0.0
2020/01/01 03:12:12.000   1944880.2508   4556785.2798   4004207.2594   6  16   0.0158   0.0260   0.0220   0.0132   0.0186   0.0141   0.00    0.0
2020/01/01 03:12:42.000   1944880.2497   4556785.2772   4004207.2585   6  16   0.0168   0.0261   0.0223   0.0130   0.0191   0.0138   0.00    0.0
2020/01/01 03:13:12.000   1944880.2461   4556785.2733   4004207.2535   6  16   0.0165   0.0265   0.0223   0.0134   0.0186   0.0142   0.00    0.0
2020/01/01 03:13:42.000   1944880.2478   4556785.2782   4004207.2526   6  16   0.0165   0.0263   0.0219   0.0131   0.0188   0.0144   0.00    0.0
2020/01/01 03:14:12.000   1944880.2476   4556785.2774   4004207.2490   6  16   0.0161   0.0262   0.0218   0.0123   0.0189   0.0137   0.00    0.0
2020/01/01 03:14:42.000   1944880.2453   4556785.2751   4004207.2514   6  16   0.0158   0.0262   0.0225   0.0127   0.0190   0.0143   0.00    0.0
2020/01/01 03:15:12.000   1944880.2452   4556785.2737   4004207.2538   6  16   0.0158   0.0260   0.0219   0.0125   0.0185   0.0142   0.00    0.0
2020/01/01 03:15:42.000   1944880.2461   4556785.2765   4004207.2547   6  16   0.0163   0.0265   0.0222   0.0135   0.0189   0.0142   0.00    0.0
2020/01/01 03:16:12.000   1944880.2498   4556785.2791   4004207.2548   6  16   0.0162   0.0261   0.0218   0.0128   0.0188   0.0136   0.00    0.0
2020/01/01 03:16:42.000   1944880.2452   4556785.2734   4004207.2512   6  16   0.0163   0.0260   0.0218   0.0129   0.0189   0.0139   0.00    0.0
2020/01/01 03:17:12.000   1944880.2428   4556785.2735   4004207.2506   6  16   0.0164   0.0262   0.0221   0.0133   0.0187   0.0137   0.00    0.0
2020/01/01 03:17:42.000   1944880.2434   4556785.2750   4004207.2525   6  16   0.0161   0.0259   0.0223   0.0127   0.0191   0.0146   0.00    0.0
2020/01/01 03:18:12.000   1944880.2443   4556785.2745   4004207.2556   6  16   0.0162   0.0262   0.0218   0.0128   0.0186   0.0132   0.00    0.0
2020/01/01 03:18:42.000   1944880.2436   4556785.2720   4004207.2535   6  16   0.0161   0.0264   0.0216   0.0133   0.0185   0.0130   0.00    0.0
2020/01/01 03:19:12.000   1944880.2439   4556785.2735   4004207.2536   6  16   0.0156   0.0262   0.0216   0.0125   0.0187   0.0137   0.00    0.0
2020/01/01 03:19:42.000   1944880.2459   4556785.2756   4004207.2548   6  17   0.0158   0.0265   0.0216   0.0127   0.0186   0.0136   0.00    0.0
2020/01/01 03:20:12.000   1944880.2434   4556785.2731   4004207.2483   6  17   0.0163   0.0258   0.0220   0.0131   0.0185   0.0139   0.00    0.0
2020/01/01 03:20:42.000   1944880.2472   4556785.2733   4004207.2539   6  17   0.0158   0.0261   0.0216   0.0133   0.0184   0.0139   0.00    0.0
2020/01/01 03:21:12.000   1944880.2455   4556785.2737   4004207.2476   6  17   0.0158   0.0258   0.0216   0.0132   0.0184   0.0135   0.00    0.0
2020/01/01 03:21:42.000   1944880.2483   4556785.2794   4004207.2545   6  17   0.0157   0.0257   0.0221   0.0128   0.0187   0.0137   0.00    0.0
2020/01/01 03:22:12.000   1944880.2449   4556785.2736   4004207.2488   6  17   0.0164   0.0256   0.0216   0.0126   0.0184   0.0139   0.00    0.0
2020/01/01 03:22:42.000   1944880.2486   4556785.2779   4004207.2551   6  17   0.0162   0.0257   0.0222   0.0132   0.0186   0.0145   0.00    0.0
2020/01/01 03:23:12.000   1944880.2471   4556785.2731   4004207.2516   6  17   0.0160   0.0257   0.0221   0.0127   0.0185   0.0137   0.00    0.0
